{
	"type" : "FeatureCollection",
	"name" : "26109_kyoto-shi_fushimi-ku_shelter",
	"features" : [
		{
			"type" : "Feature",
			"geometry" : {
				"type" : "Point",
				"coordinates" : [ 135.7718849997, 34.9693679996 ]
			},
			"properties" : {
				"高さ" : "12.5",
				"行政区域" : "26109",
				"名称" : "稲荷小学校",
				"住所" : "京都府京都市伏見区深草開土町12-1",
				"施設の種類" : "避難所",
				"収容人数" : "300",
				"施設規模" : null,
				"対象とする災害の分類" : "指定なし",
				"レベル" : "1"
			}
		},
		{
			"type" : "Feature",
			"geometry" : {
				"type" : "Point",
				"coordinates" : [ 135.7618932098, 34.9224618097 ]
			},
			"properties" : {
				"高さ" : null,
				"行政区域" : "26109",
				"名称" : "宇治川公園",
				"住所" : "京都府京都市伏見区",
				"施設の種類" : "広域避難場所",
				"収容人数" : null,
				"施設規模" : null,
				"対象とする災害の分類" : "指定なし",
				"レベル" : "1"
			}
		},
		{
			"type" : "Feature",
			"geometry" : {
				"type" : "Point",
				"coordinates" : [ 135.7317542274, 34.9286698774 ]
			},
			"properties" : {
				"高さ" : null,
				"行政区域" : "26109",
				"名称" : "羽束師運動広場",
				"住所" : "京都府京都市伏見区羽束師古川町",
				"施設の種類" : "広域避難場所",
				"収容人数" : "13850",
				"施設規模" : "27700",
				"対象とする災害の分類" : "指定なし",
				"レベル" : "3"
			}
		},
		{
			"type" : "Feature",
			"geometry" : {
				"type" : "Point",
				"coordinates" : [ 135.7220962964, 34.9332858915 ]
			},
			"properties" : {
				"高さ" : "11.2",
				"行政区域" : "26109",
				"名称" : "羽束師小学校",
				"住所" : "京都府京都市伏見区羽束師菱川町640",
				"施設の種類" : "避難所",
				"収容人数" : "350",
				"施設規模" : null,
				"対象とする災害の分類" : "指定なし",
				"レベル" : "1"
			}
		},
		{
			"type" : "Feature",
			"geometry" : {
				"type" : "Point",
				"coordinates" : [ 135.7334444663, 34.9150243462 ]
			},
			"properties" : {
				"高さ" : null,
				"行政区域" : "26109",
				"名称" : "横大路運動公園",
				"住所" : "京都府京都市伏見区横大路下ノ坪",
				"施設の種類" : "広域避難場所",
				"収容人数" : "64000",
				"施設規模" : "12800",
				"対象とする災害の分類" : "指定なし",
				"レベル" : "1"
			}
		},
		{
			"type" : "Feature",
			"geometry" : {
				"type" : "Point",
				"coordinates" : [ 135.7344940309, 34.9280763968 ]
			},
			"properties" : {
				"高さ" : "11.8",
				"行政区域" : "26109",
				"名称" : "横大路小学校",
				"住所" : "京都府京都市伏見区横大路草津町54-1",
				"施設の種類" : "避難所",
				"収容人数" : "150",
				"施設規模" : null,
				"対象とする災害の分類" : "指定なし",
				"レベル" : "1"
			}
		},
		{
			"type" : "Feature",
			"geometry" : {
				"type" : "Point",
				"coordinates" : [ 135.7485660593, 34.9432808524 ]
			},
			"properties" : {
				"高さ" : null,
				"行政区域" : "26109",
				"名称" : "下鳥羽公園",
				"住所" : "京都府京都市伏見区下鳥羽西芹川町",
				"施設の種類" : "広域避難場所",
				"収容人数" : "9500",
				"施設規模" : "19000",
				"対象とする災害の分類" : "指定なし",
				"レベル" : "3"
			}
		},
		{
			"type" : "Feature",
			"geometry" : {
				"type" : "Point",
				"coordinates" : [ 135.7436399634, 34.9391280422 ]
			},
			"properties" : {
				"高さ" : "10.7",
				"行政区域" : "26109",
				"名称" : "下鳥羽小学校",
				"住所" : "京都府京都市伏見区下鳥羽長田町86-2",
				"施設の種類" : "避難所",
				"収容人数" : "250",
				"施設規模" : null,
				"対象とする災害の分類" : "指定なし",
				"レベル" : "1"
			}
		},
		{
			"type" : "Feature",
			"geometry" : {
				"type" : "Point",
				"coordinates" : [ 135.7291929996, 34.9333420002 ]
			},
			"properties" : {
				"高さ" : "8.4",
				"行政区域" : "26109",
				"名称" : "久我の杜小学校",
				"住所" : "京都府京都市伏見区久我東町209",
				"施設の種類" : "避難所",
				"収容人数" : "300",
				"施設規模" : null,
				"対象とする災害の分類" : "指定なし",
				"レベル" : "1"
			}
		},
		{
			"type" : "Feature",
			"geometry" : {
				"type" : "Point",
				"coordinates" : [ 135.7789659998, 34.9320380004 ]
			},
			"properties" : {
				"高さ" : "10.9",
				"行政区域" : "26109",
				"名称" : "京都橘高等学校",
				"住所" : "京都府京都市伏見区桃山町伊賀50",
				"施設の種類" : "避難所",
				"収容人数" : "600",
				"施設規模" : null,
				"対象とする災害の分類" : "指定なし",
				"レベル" : "1"
			}
		},
		{
			"type" : "Feature",
			"geometry" : {
				"type" : "Point",
				"coordinates" : [ 135.7248007233, 34.906820395 ]
			},
			"properties" : {
				"高さ" : "35.7",
				"行政区域" : "26109",
				"名称" : "京都競馬場",
				"住所" : "京都府京都市伏見区葭島渡場島町32",
				"施設の種類" : "広域避難場所",
				"収容人数" : "60500",
				"施設規模" : "12100",
				"対象とする災害の分類" : "指定なし",
				"レベル" : "3"
			}
		},
		{
			"type" : "Feature",
			"geometry" : {
				"type" : "Point",
				"coordinates" : [ 135.7731899996, 34.9498699998 ]
			},
			"properties" : {
				"高さ" : "11.1",
				"行政区域" : "26109",
				"名称" : "京都教育大学",
				"住所" : "京都府京都市伏見区深草藤森町1",
				"施設の種類" : "避難所、避難場所",
				"収容人数" : "27550",
				"施設規模" : "52500",
				"対象とする災害の分類" : "指定なし",
				"レベル" : "1"
			}
		},
		{
			"type" : "Feature",
			"geometry" : {
				"type" : "Point",
				"coordinates" : [ 135.7653549558, 34.9508433414 ]
			},
			"properties" : {
				"高さ" : "17",
				"行政区域" : "26109",
				"名称" : "京都教育大学附属高校",
				"住所" : "京都府京都市伏見区深草越後屋敷町",
				"施設の種類" : "避難所、広域避難場所",
				"収容人数" : "18370",
				"施設規模" : "36000",
				"対象とする災害の分類" : "指定なし",
				"レベル" : "1"
			}
		},
		{
			"type" : "Feature",
			"geometry" : {
				"type" : "Point",
				"coordinates" : [ 135.7645651918, 34.9382804573 ]
			},
			"properties" : {
				"高さ" : "22.4",
				"行政区域" : "26109",
				"名称" : "京都市呉竹文化センター",
				"住所" : "京都府京都市伏見区京町南七丁目35-1",
				"施設の種類" : "避難所",
				"収容人数" : "169",
				"施設規模" : null,
				"対象とする災害の分類" : "指定なし",
				"レベル" : "3"
			}
		},
		{
			"type" : "Feature",
			"geometry" : {
				"type" : "Point",
				"coordinates" : [ 135.7777029128, 34.9415732278 ]
			},
			"properties" : {
				"高さ" : "11.5",
				"行政区域" : "26109",
				"名称" : "京都市伏見北堀公園地域体育館",
				"住所" : "京都府京都市伏見区深草大亀谷五郎太郎23",
				"施設の種類" : "避難所",
				"収容人数" : "450",
				"施設規模" : null,
				"対象とする災害の分類" : "指定なし",
				"レベル" : "3"
			}
		},
		{
			"type" : "Feature",
			"geometry" : {
				"type" : "Point",
				"coordinates" : [ 135.7672974536, 34.9662075472 ]
			},
			"properties" : {
				"高さ" : null,
				"行政区域" : "26109",
				"名称" : "京都府警察学校グラウンド",
				"住所" : "京都府京都市伏見区深草塚本町官有地",
				"施設の種類" : "広域避難場所",
				"収容人数" : "15000",
				"施設規模" : "30000",
				"対象とする災害の分類" : "指定なし",
				"レベル" : "1"
			}
		},
		{
			"type" : "Feature",
			"geometry" : {
				"type" : "Point",
				"coordinates" : [ 135.7235661762, 34.9237006743 ]
			},
			"properties" : {
				"高さ" : "10.5",
				"行政区域" : "26109",
				"名称" : "京都府警察自動車運転免許試験場",
				"住所" : "京都府京都市伏見区羽束師古川町",
				"施設の種類" : "広域避難場所",
				"収容人数" : "27550",
				"施設規模" : "55100",
				"対象とする災害の分類" : "指定なし",
				"レベル" : "3"
			}
		},
		{
			"type" : "Feature",
			"geometry" : {
				"type" : "Point",
				"coordinates" : [ 135.7651900003, 34.9127070001 ]
			},
			"properties" : {
				"高さ" : null,
				"行政区域" : "26109",
				"名称" : "京都府立京都すばる高校",
				"住所" : "京都府京都市伏見区向島西定請120",
				"施設の種類" : "避難所",
				"収容人数" : "659",
				"施設規模" : null,
				"対象とする災害の分類" : "指定なし",
				"レベル" : "1"
			}
		},
		{
			"type" : "Feature",
			"geometry" : {
				"type" : "Point",
				"coordinates" : [ 135.7577989608, 34.9252581365 ]
			},
			"properties" : {
				"高さ" : "25.7",
				"行政区域" : "26109",
				"名称" : "京都府立伏見港公園総合体育館",
				"住所" : "京都府京都市伏見区葭島金井戸町",
				"施設の種類" : "避難所",
				"収容人数" : "704",
				"施設規模" : null,
				"対象とする災害の分類" : "指定なし",
				"レベル" : "3"
			}
		},
		{
			"type" : "Feature",
			"geometry" : {
				"type" : "Point",
				"coordinates" : [ 135.7667741984, 34.9391422533 ]
			},
			"properties" : {
				"高さ" : "15.2",
				"行政区域" : "26109",
				"名称" : "教育大学附属小学校",
				"住所" : "京都府京都市伏見区桃山筒井伊賀東町46",
				"施設の種類" : "避難所",
				"収容人数" : "485",
				"施設規模" : null,
				"対象とする災害の分類" : "指定なし",
				"レベル" : "1"
			}
		},
		{
			"type" : "Feature",
			"geometry" : {
				"type" : "Point",
				"coordinates" : [ 135.767523, 34.9404259996 ]
			},
			"properties" : {
				"高さ" : "8.3",
				"行政区域" : "26109",
				"名称" : "教育大学附属桃山中学校",
				"住所" : "京都府京都市伏見区桃山井伊掃部東町16",
				"施設の種類" : "避難所",
				"収容人数" : "591",
				"施設規模" : null,
				"対象とする災害の分類" : "指定なし",
				"レベル" : "1"
			}
		},
		{
			"type" : "Feature",
			"geometry" : {
				"type" : "Point",
				"coordinates" : [ 135.782702834, 34.9468504928 ]
			},
			"properties" : {
				"高さ" : "4.2",
				"行政区域" : "26109",
				"名称" : "教育大学附属養護学校",
				"住所" : "京都府京都市伏見区深草大亀谷大山町90",
				"施設の種類" : "避難所",
				"収容人数" : "160",
				"施設規模" : null,
				"対象とする災害の分類" : "指定なし",
				"レベル" : "3"
			}
		},
		{
			"type" : "Feature",
			"geometry" : {
				"type" : "Point",
				"coordinates" : [ 135.8079360002, 34.9464539997 ]
			},
			"properties" : {
				"高さ" : "11.1",
				"行政区域" : "26109",
				"名称" : "栗陵中学校",
				"住所" : "京都府京都市伏見区醍醐池田町17-1",
				"施設の種類" : "避難所、広域避難場所",
				"収容人数" : "5900",
				"施設規模" : "11200",
				"対象とする災害の分類" : "指定なし",
				"レベル" : "1"
			}
		},
		{
			"type" : "Feature",
			"geometry" : {
				"type" : "Point",
				"coordinates" : [ 135.7702089997, 34.9392989997 ]
			},
			"properties" : {
				"高さ" : "8.6",
				"行政区域" : "26109",
				"名称" : "呉竹養護学校",
				"住所" : "京都府京都市伏見区桃山福島太夫北町52",
				"施設の種類" : "避難所",
				"収容人数" : "214",
				"施設規模" : null,
				"対象とする災害の分類" : "指定なし",
				"レベル" : "1"
			}
		},
		{
			"type" : "Feature",
			"geometry" : {
				"type" : "Point",
				"coordinates" : [ 135.7711059997, 34.9265940002 ]
			},
			"properties" : {
				"高さ" : "3.1",
				"行政区域" : "26109",
				"名称" : "向島小学校",
				"住所" : "京都府京都市伏見区向島善阿弥町2-3",
				"施設の種類" : "避難所",
				"収容人数" : "200",
				"施設規模" : null,
				"対象とする災害の分類" : "指定なし",
				"レベル" : "1"
			}
		},
		{
			"type" : "Feature",
			"geometry" : {
				"type" : "Point",
				"coordinates" : [ 135.7737746902, 34.9172544787 ]
			},
			"properties" : {
				"高さ" : null,
				"行政区域" : "26109",
				"名称" : "向島中央公園",
				"住所" : "京都府京都市伏見区向島二ノ丸町",
				"施設の種類" : "広域避難場所",
				"収容人数" : null,
				"施設規模" : null,
				"対象とする災害の分類" : "指定なし",
				"レベル" : "1"
			}
		},
		{
			"type" : "Feature",
			"geometry" : {
				"type" : "Point",
				"coordinates" : [ 135.7747719997, 34.9169010002 ]
			},
			"properties" : {
				"高さ" : "14.8",
				"行政区域" : "26109",
				"名称" : "向島中学校",
				"住所" : "京都府京都市伏見区向島二ノ丸町151-55",
				"施設の種類" : "避難所、広域避難場所",
				"収容人数" : "10800",
				"施設規模" : "20900",
				"対象とする災害の分類" : "指定なし",
				"レベル" : "1"
			}
		},
		{
			"type" : "Feature",
			"geometry" : {
				"type" : "Point",
				"coordinates" : [ 135.77867264, 34.9195118499 ]
			},
			"properties" : {
				"高さ" : null,
				"行政区域" : "26109",
				"名称" : "向島東公園",
				"住所" : "京都府京都市伏見区向島藤ノ木町",
				"施設の種類" : "広域避難場所",
				"収容人数" : null,
				"施設規模" : null,
				"対象とする災害の分類" : "指定なし",
				"レベル" : "1"
			}
		},
		{
			"type" : "Feature",
			"geometry" : {
				"type" : "Point",
				"coordinates" : [ 135.7781180002, 34.9258029997 ]
			},
			"properties" : {
				"高さ" : "8.2",
				"行政区域" : "26109",
				"名称" : "向島東中学校",
				"住所" : "京都府京都市伏見区向島吹田河原町138",
				"施設の種類" : "避難所",
				"収容人数" : "350",
				"施設規模" : null,
				"対象とする災害の分類" : "指定なし",
				"レベル" : "1"
			}
		},
		{
			"type" : "Feature",
			"geometry" : {
				"type" : "Point",
				"coordinates" : [ 135.780077382, 34.9203128904 ]
			},
			"properties" : {
				"高さ" : "11.3",
				"行政区域" : "26109",
				"名称" : "向島藤の木小学校",
				"住所" : "京都府京都市伏見区向島藤ノ木町82-5",
				"施設の種類" : "避難所、広域避難場所",
				"収容人数" : "24600",
				"施設規模" : "48700",
				"対象とする災害の分類" : "指定なし",
				"レベル" : "1"
			}
		},
		{
			"type" : "Feature",
			"geometry" : {
				"type" : "Point",
				"coordinates" : [ 135.7656619996, 34.9234550002 ]
			},
			"properties" : {
				"高さ" : "7.8",
				"行政区域" : "26109",
				"名称" : "向島南小学校",
				"住所" : "京都府京都市伏見区向島津田町95-1",
				"施設の種類" : "避難所、広域避難場所",
				"収容人数" : "28200",
				"施設規模" : "55900",
				"対象とする災害の分類" : "指定なし",
				"レベル" : "1"
			}
		},
		{
			"type" : "Feature",
			"geometry" : {
				"type" : "Point",
				"coordinates" : [ 135.7739939998, 34.9162620004 ]
			},
			"properties" : {
				"高さ" : "14.7",
				"行政区域" : "26109",
				"名称" : "向島二の丸小学校",
				"住所" : "京都府京都市伏見区向島二ノ丸町151",
				"施設の種類" : "避難所、避難場所",
				"収容人数" : "250",
				"施設規模" : null,
				"対象とする災害の分類" : "指定なし",
				"レベル" : "1"
			}
		},
		{
			"type" : "Feature",
			"geometry" : {
				"type" : "Point",
				"coordinates" : [ 135.7691349997, 34.9642290001 ]
			},
			"properties" : {
				"高さ" : "11.5",
				"行政区域" : "26109",
				"名称" : "砂川小学校",
				"住所" : "京都府京都市伏見区深草ケナサ町25-5",
				"施設の種類" : "避難所",
				"収容人数" : "380",
				"施設規模" : null,
				"対象とする災害の分類" : "指定なし",
				"レベル" : "1"
			}
		},
		{
			"type" : "Feature",
			"geometry" : {
				"type" : "Point",
				"coordinates" : [ 135.7523500998, 34.9336203701 ]
			},
			"properties" : {
				"高さ" : null,
				"行政区域" : "26109",
				"名称" : "三栖公園",
				"住所" : "京都府京都市伏見区下鳥羽六反長町",
				"施設の種類" : "広域避難場所",
				"収容人数" : "11000",
				"施設規模" : "22000",
				"対象とする災害の分類" : "指定なし",
				"レベル" : "1"
			}
		},
		{
			"type" : "Feature",
			"geometry" : {
				"type" : "Point",
				"coordinates" : [ 135.7657170003, 34.9140120001 ]
			},
			"properties" : {
				"高さ" : null,
				"行政区域" : "26109",
				"名称" : "種智院大学",
				"住所" : "京都府京都市伏見区向島西定請70",
				"施設の種類" : "避難所",
				"収容人数" : "862",
				"施設規模" : null,
				"対象とする災害の分類" : "指定なし",
				"レベル" : "1"
			}
		},
		{
			"type" : "Feature",
			"geometry" : {
				"type" : "Point",
				"coordinates" : [ 135.8184349997, 34.9390940002 ]
			},
			"properties" : {
				"高さ" : "19",
				"行政区域" : "26109",
				"名称" : "春日丘中学校",
				"住所" : "京都府京都市伏見区日野谷寺町50",
				"施設の種類" : "避難所、広域避難場所",
				"収容人数" : "6730",
				"施設規模" : "12500",
				"対象とする災害の分類" : "指定なし",
				"レベル" : "1"
			}
		},
		{
			"type" : "Feature",
			"geometry" : {
				"type" : "Point",
				"coordinates" : [ 135.8124611523, 34.9393361337 ]
			},
			"properties" : {
				"高さ" : "11.6",
				"行政区域" : "26109",
				"名称" : "春日野小学校",
				"住所" : "京都府京都市伏見区日野田中町31",
				"施設の種類" : "避難所",
				"収容人数" : "200",
				"施設規模" : null,
				"対象とする災害の分類" : "指定なし",
				"レベル" : "1"
			}
		},
		{
			"type" : "Feature",
			"geometry" : {
				"type" : "Point",
				"coordinates" : [ 135.7992420004, 34.9456769998 ]
			},
			"properties" : {
				"高さ" : "15.3",
				"行政区域" : "26109",
				"名称" : "小栗栖宮山小学校",
				"住所" : "京都府京都市伏見区小栗栖宮山1-1",
				"施設の種類" : "避難所",
				"収容人数" : "250",
				"施設規模" : null,
				"対象とする災害の分類" : "指定なし",
				"レベル" : "1"
			}
		},
		{
			"type" : "Feature",
			"geometry" : {
				"type" : "Point",
				"coordinates" : [ 135.7980759997, 34.9427050003 ]
			},
			"properties" : {
				"高さ" : "11.3",
				"行政区域" : "26109",
				"名称" : "小栗栖小学校",
				"住所" : "京都府京都市伏見区小栗栖森本町47-4",
				"施設の種類" : "避難所、避難場所",
				"収容人数" : "200",
				"施設規模" : null,
				"対象とする災害の分類" : "指定なし",
				"レベル" : "1"
			}
		},
		{
			"type" : "Feature",
			"geometry" : {
				"type" : "Point",
				"coordinates" : [ 135.7981040001, 34.9413160001 ]
			},
			"properties" : {
				"高さ" : "11.5",
				"行政区域" : "26109",
				"名称" : "小栗栖中学校",
				"住所" : "京都府京都市伏見区石田川向43",
				"施設の種類" : "避難所、広域避難場所",
				"収容人数" : "6600",
				"施設規模" : "12800",
				"対象とする災害の分類" : "指定なし",
				"レベル" : "1"
			}
		},
		{
			"type" : "Feature",
			"geometry" : {
				"type" : "Point",
				"coordinates" : [ 135.7723569999, 34.9560640004 ]
			},
			"properties" : {
				"高さ" : "16.5",
				"行政区域" : "26109",
				"名称" : "深草小学校",
				"住所" : "京都府京都市伏見区深草西伊達町82-3",
				"施設の種類" : "避難所",
				"収容人数" : "180",
				"施設規模" : null,
				"対象とする災害の分類" : "指定なし",
				"レベル" : "1"
			}
		},
		{
			"type" : "Feature",
			"geometry" : {
				"type" : "Point",
				"coordinates" : [ 135.7751603747, 34.9571604952 ]
			},
			"properties" : {
				"高さ" : "11.4",
				"行政区域" : "26109",
				"名称" : "深草中学校",
				"住所" : "京都府京都市伏見区深草西伊達町1-4",
				"施設の種類" : "避難所",
				"収容人数" : "500",
				"施設規模" : null,
				"対象とする災害の分類" : "指定なし",
				"レベル" : "1"
			}
		},
		{
			"type" : "Feature",
			"geometry" : {
				"type" : "Point",
				"coordinates" : [ 135.732827079, 34.9389463324 ]
			},
			"properties" : {
				"高さ" : "16.2",
				"行政区域" : "26109",
				"名称" : "神川小学校",
				"住所" : "京都府京都市伏見区久我東町60-2",
				"施設の種類" : "避難所",
				"収容人数" : "350",
				"施設規模" : null,
				"対象とする災害の分類" : "指定なし",
				"レベル" : "1"
			}
		},
		{
			"type" : "Feature",
			"geometry" : {
				"type" : "Point",
				"coordinates" : [ 135.7220540004, 34.9324260003 ]
			},
			"properties" : {
				"高さ" : "15",
				"行政区域" : "26109",
				"名称" : "神川中学校",
				"住所" : "京都府京都市伏見区羽束師菱川町741",
				"施設の種類" : "避難所",
				"収容人数" : "350",
				"施設規模" : null,
				"対象とする災害の分類" : "指定なし",
				"レベル" : "1"
			}
		},
		{
			"type" : "Feature",
			"geometry" : {
				"type" : "Point",
				"coordinates" : [ 135.7724119997, 34.9578970003 ]
			},
			"properties" : {
				"高さ" : "15.6",
				"行政区域" : "26109",
				"名称" : "聖母女学院",
				"住所" : "京都府京都市伏見区深草田谷町1",
				"施設の種類" : "避難所",
				"収容人数" : "800",
				"施設規模" : null,
				"対象とする災害の分類" : "指定なし",
				"レベル" : "1"
			}
		},
		{
			"type" : "Feature",
			"geometry" : {
				"type" : "Point",
				"coordinates" : [ 135.7730733477, 34.9573383199 ]
			},
			"properties" : {
				"高さ" : null,
				"行政区域" : "26109",
				"名称" : "聖母女学院大運動場",
				"住所" : "京都府京都市伏見区深草西伊達町",
				"施設の種類" : "広域避難場所",
				"収容人数" : "10650",
				"施設規模" : "21300",
				"対象とする災害の分類" : "指定なし",
				"レベル" : "3"
			}
		},
		{
			"type" : "Feature",
			"geometry" : {
				"type" : "Point",
				"coordinates" : [ 135.774759599, 34.9572039405 ]
			},
			"properties" : {
				"高さ" : null,
				"行政区域" : "26109",
				"名称" : "深草中学校グラウンド",
				"住所" : "京都府京都市伏見区深草西伊達町1-4",
				"施設の種類" : "広域避難場所",
				"収容人数" : "10650",
				"施設規模" : "21300",
				"対象とする災害の分類" : "指定なし",
				"レベル" : "3"
			}
		},
		{
			"type" : "Feature",
			"geometry" : {
				"type" : "Point",
				"coordinates" : [ 135.8010034414, 34.9407620789 ]
			},
			"properties" : {
				"高さ" : "11.6",
				"行政区域" : "26109",
				"名称" : "石田小学校",
				"住所" : "京都府京都市伏見区石田森西24",
				"施設の種類" : "避難所",
				"収容人数" : "250",
				"施設規模" : null,
				"対象とする災害の分類" : "指定なし",
				"レベル" : "1"
			}
		},
		{
			"type" : "Feature",
			"geometry" : {
				"type" : "Point",
				"coordinates" : [ 135.7237421052, 34.9020640102 ]
			},
			"properties" : {
				"高さ" : "11.3",
				"行政区域" : "26109",
				"名称" : "大淀中学校",
				"住所" : "京都府京都市伏見区淀下津町257-7",
				"施設の種類" : "避難所",
				"収容人数" : "250",
				"施設規模" : null,
				"対象とする災害の分類" : "指定なし",
				"レベル" : "1"
			}
		},
		{
			"type" : "Feature",
			"geometry" : {
				"type" : "Point",
				"coordinates" : [ 135.8178990109, 34.950064257 ]
			},
			"properties" : {
				"高さ" : "12.7",
				"行政区域" : "26109",
				"名称" : "醍醐小学校",
				"住所" : "京都府京都市伏見区醍醐東大路町31-1",
				"施設の種類" : "避難所",
				"収容人数" : "150",
				"施設規模" : null,
				"対象とする災害の分類" : "指定なし",
				"レベル" : "1"
			}
		},
		{
			"type" : "Feature",
			"geometry" : {
				"type" : "Point",
				"coordinates" : [ 135.8120189997, 34.9532039998 ]
			},
			"properties" : {
				"高さ" : "11.6",
				"行政区域" : "26109",
				"名称" : "醍醐西小学校",
				"住所" : "京都府京都市伏見区醍醐川久保町1",
				"施設の種類" : "避難所",
				"収容人数" : "200",
				"施設規模" : null,
				"対象とする災害の分類" : "指定なし",
				"レベル" : "1"
			}
		},
		{
			"type" : "Feature",
			"geometry" : {
				"type" : "Point",
				"coordinates" : [ 135.8153470686, 34.9436928795 ]
			},
			"properties" : {
				"高さ" : "11.5",
				"行政区域" : "26109",
				"名称" : "醍醐中学校",
				"住所" : "京都府京都市伏見区醍醐岸ノ上町21",
				"施設の種類" : "避難所",
				"収容人数" : "200",
				"施設規模" : null,
				"対象とする災害の分類" : "指定なし",
				"レベル" : "1"
			}
		},
		{
			"type" : "Feature",
			"geometry" : {
				"type" : "Point",
				"coordinates" : [ 135.8079920001, 34.9456490003 ]
			},
			"properties" : {
				"高さ" : "11.5",
				"行政区域" : "26109",
				"名称" : "池田小学校",
				"住所" : "京都府京都市伏見区醍醐鍵尾町17",
				"施設の種類" : "避難所、避難場所",
				"収容人数" : "200",
				"施設規模" : null,
				"対象とする災害の分類" : "指定なし",
				"レベル" : "1"
			}
		},
		{
			"type" : "Feature",
			"geometry" : {
				"type" : "Point",
				"coordinates" : [ 135.812825, 34.9448710004 ]
			},
			"properties" : {
				"高さ" : "14.2",
				"行政区域" : "26109",
				"名称" : "池田東小学校",
				"住所" : "京都府京都市伏見区醍醐多近田町2-2",
				"施設の種類" : "避難所",
				"収容人数" : "250",
				"施設規模" : null,
				"対象とする災害の分類" : "指定なし",
				"レベル" : "1"
			}
		},
		{
			"type" : "Feature",
			"geometry" : {
				"type" : "Point",
				"coordinates" : [ 135.7569420004, 34.9550080002 ]
			},
			"properties" : {
				"高さ" : "14.6",
				"行政区域" : "26109",
				"名称" : "竹田小学校",
				"住所" : "京都府京都市伏見区竹田桶ノ井町8-2",
				"施設の種類" : "避難所",
				"収容人数" : "350",
				"施設規模" : null,
				"対象とする災害の分類" : "指定なし",
				"レベル" : "1"
			}
		},
		{
			"type" : "Feature",
			"geometry" : {
				"type" : "Point",
				"coordinates" : [ 135.8217640003, 34.9629319996 ]
			},
			"properties" : {
				"高さ" : null,
				"行政区域" : "26109",
				"名称" : "東山高等学校総合グラウンド",
				"住所" : "京都府京都市伏見区醍醐内ヶ井戸1",
				"施設の種類" : "広域避難場所",
				"収容人数" : "15500",
				"施設規模" : "31000",
				"対象とする災害の分類" : "指定なし",
				"レベル" : "3"
			}
		},
		{
			"type" : "Feature",
			"geometry" : {
				"type" : "Point",
				"coordinates" : [ 135.8184909996, 34.9554259997 ]
			},
			"properties" : {
				"高さ" : "17.2",
				"行政区域" : "26109",
				"名称" : "東稜高等学校",
				"住所" : "京都府京都市伏見区醍醐新町裏町25-1",
				"施設の種類" : "避難所",
				"収容人数" : "819",
				"施設規模" : null,
				"対象とする災害の分類" : "指定なし",
				"レベル" : "1"
			}
		},
		{
			"type" : "Feature",
			"geometry" : {
				"type" : "Point",
				"coordinates" : [ 135.7812523066, 34.9365364902 ]
			},
			"properties" : {
				"高さ" : null,
				"行政区域" : "26109",
				"名称" : "桃山御陵",
				"住所" : "京都府京都市伏見区桃山町古城山（他）",
				"施設の種類" : "広域避難場所",
				"収容人数" : "80000",
				"施設規模" : "160000",
				"対象とする災害の分類" : "指定なし",
				"レベル" : "3"
			}
		},
		{
			"type" : "Feature",
			"geometry" : {
				"type" : "Point",
				"coordinates" : [ 135.7702079997, 34.9366089998 ]
			},
			"properties" : {
				"高さ" : "13.4",
				"行政区域" : "26109",
				"名称" : "桃山高等学校",
				"住所" : "京都府京都市伏見区桃山毛利利長門東町8",
				"施設の種類" : "避難所",
				"収容人数" : "616",
				"施設規模" : null,
				"対象とする災害の分類" : "指定なし",
				"レベル" : "1"
			}
		},
		{
			"type" : "Feature",
			"geometry" : {
				"type" : "Point",
				"coordinates" : [ 135.7753280002, 34.9328989996 ]
			},
			"properties" : {
				"高さ" : "15",
				"行政区域" : "26109",
				"名称" : "桃山小学校",
				"住所" : "京都府京都市伏見区桃山町本多上野107",
				"施設の種類" : "避難所",
				"収容人数" : "200",
				"施設規模" : null,
				"対象とする災害の分類" : "指定なし",
				"レベル" : "1"
			}
		},
		{
			"type" : "Feature",
			"geometry" : {
				"type" : "Point",
				"coordinates" : [ 135.7692729997, 34.9425369998 ]
			},
			"properties" : {
				"高さ" : "11.4",
				"行政区域" : "26109",
				"名称" : "桃山中学校",
				"住所" : "京都府京都市伏見区桃山水野左近東町19",
				"施設の種類" : "避難所",
				"収容人数" : "200",
				"施設規模" : null,
				"対象とする災害の分類" : "指定なし",
				"レベル" : "1"
			}
		},
		{
			"type" : "Feature",
			"geometry" : {
				"type" : "Point",
				"coordinates" : [ 135.7872159998, 34.9352330002 ]
			},
			"properties" : {
				"高さ" : "14.9",
				"行政区域" : "26109",
				"名称" : "桃山東小学校",
				"住所" : "京都府京都市伏見区桃山町伊庭12",
				"施設の種類" : "避難所",
				"収容人数" : "200",
				"施設規模" : null,
				"対象とする災害の分類" : "指定なし",
				"レベル" : "1"
			}
		},
		{
			"type" : "Feature",
			"geometry" : {
				"type" : "Point",
				"coordinates" : [ 135.7881352176, 34.9262316166 ]
			},
			"properties" : {
				"高さ" : "7.8",
				"行政区域" : "26109",
				"名称" : "桃山南小学校",
				"住所" : "京都府京都市伏見区桃山町大島38-109",
				"施設の種類" : "避難所",
				"収容人数" : "350",
				"施設規模" : null,
				"対象とする災害の分類" : "指定なし",
				"レベル" : "1"
			}
		},
		{
			"type" : "Feature",
			"geometry" : {
				"type" : "Point",
				"coordinates" : [ 135.7888749387, 34.9354419208 ]
			},
			"properties" : {
				"高さ" : "15.3",
				"行政区域" : "26109",
				"名称" : "桃山養護学校",
				"住所" : "京都府京都市伏見区桃山町遠山50",
				"施設の種類" : "避難所",
				"収容人数" : "276",
				"施設規模" : null,
				"対象とする災害の分類" : "指定なし",
				"レベル" : "1"
			}
		},
		{
			"type" : "Feature",
			"geometry" : {
				"type" : "Point",
				"coordinates" : [ 135.7886036133, 34.9426730384 ]
			},
			"properties" : {
				"高さ" : "14.6",
				"行政区域" : "26109",
				"名称" : "桃陽養護学校",
				"住所" : "京都府京都市伏見区深草大亀谷岩山町48-1",
				"施設の種類" : "避難所",
				"収容人数" : "280",
				"施設規模" : null,
				"対象とする災害の分類" : "指定なし",
				"レベル" : "1"
			}
		},
		{
			"type" : "Feature",
			"geometry" : {
				"type" : "Point",
				"coordinates" : [ 135.7664404779, 34.9285285067 ]
			},
			"properties" : {
				"高さ" : "15.3",
				"行政区域" : "26109",
				"名称" : "桃陵中学校",
				"住所" : "京都府京都市伏見区桃陵町1-1",
				"施設の種類" : "避難所",
				"収容人数" : "200",
				"施設規模" : null,
				"対象とする災害の分類" : "指定なし",
				"レベル" : "1"
			}
		},
		{
			"type" : "Feature",
			"geometry" : {
				"type" : "Point",
				"coordinates" : [ 135.7708262225, 34.9486320614 ]
			},
			"properties" : {
				"高さ" : "11.2",
				"行政区域" : "26109",
				"名称" : "藤ノ森小学校",
				"住所" : "京都府京都市伏見区深草石橋町11-2",
				"施設の種類" : "避難所",
				"収容人数" : "350",
				"施設規模" : null,
				"対象とする災害の分類" : "指定なし",
				"レベル" : "1"
			}
		},
		{
			"type" : "Feature",
			"geometry" : {
				"type" : "Point",
				"coordinates" : [ 135.7761609999, 34.9418699996 ]
			},
			"properties" : {
				"高さ" : "13.6",
				"行政区域" : "26109",
				"名称" : "藤城小学校",
				"住所" : "京都府京都市伏見区深草大亀谷五郎太町37",
				"施設の種類" : "避難所",
				"収容人数" : "300",
				"施設規模" : null,
				"対象とする災害の分類" : "指定なし",
				"レベル" : "1"
			}
		},
		{
			"type" : "Feature",
			"geometry" : {
				"type" : "Point",
				"coordinates" : [ 135.7651080001, 34.9554249997 ]
			},
			"properties" : {
				"高さ" : "11.6",
				"行政区域" : "26109",
				"名称" : "藤森中学校",
				"住所" : "京都府京都市伏見区深草池ノ内町55",
				"施設の種類" : "避難所",
				"収容人数" : "550",
				"施設規模" : null,
				"対象とする災害の分類" : "指定なし",
				"レベル" : "1"
			}
		},
		{
			"type" : "Feature",
			"geometry" : {
				"type" : "Point",
				"coordinates" : [ 135.7693279996, 34.9186780003 ]
			},
			"properties" : {
				"高さ" : "21.6",
				"行政区域" : "26109",
				"名称" : "二の丸北小学校",
				"住所" : "京都府京都市伏見区向島二ノ丸町300",
				"施設の種類" : "避難所",
				"収容人数" : "300",
				"施設規模" : null,
				"対象とする災害の分類" : "指定なし",
				"レベル" : "1"
			}
		},
		{
			"type" : "Feature",
			"geometry" : {
				"type" : "Point",
				"coordinates" : [ 135.816296, 34.9382889999 ]
			},
			"properties" : {
				"高さ" : "12.3",
				"行政区域" : "26109",
				"名称" : "日野小学校",
				"住所" : "京都府京都市伏見区日野谷寺町78",
				"施設の種類" : "避難所、避難場所",
				"収容人数" : "300",
				"施設規模" : null,
				"対象とする災害の分類" : "指定なし",
				"レベル" : "1"
			}
		},
		{
			"type" : "Feature",
			"geometry" : {
				"type" : "Point",
				"coordinates" : [ 135.8202639446, 34.9346201482 ]
			},
			"properties" : {
				"高さ" : null,
				"行政区域" : "26109",
				"名称" : "日野野外活動施設",
				"住所" : "京都府京都市伏見区日野船尾",
				"施設の種類" : "広域避難場所",
				"収容人数" : "7850",
				"施設規模" : "15700",
				"対象とする災害の分類" : "指定なし",
				"レベル" : "3"
			}
		},
		{
			"type" : "Feature",
			"geometry" : {
				"type" : "Point",
				"coordinates" : [ 135.719998, 34.909818 ]
			},
			"properties" : {
				"高さ" : "12.1",
				"行政区域" : "26109",
				"名称" : "納所小学校",
				"住所" : "京都府京都市伏見区納所妙徳寺1",
				"施設の種類" : "避難所",
				"収容人数" : "200",
				"施設規模" : null,
				"対象とする災害の分類" : "指定なし",
				"レベル" : "1"
			}
		},
		{
			"type" : "Feature",
			"geometry" : {
				"type" : "Point",
				"coordinates" : [ 135.7135515696, 34.897497172 ]
			},
			"properties" : {
				"高さ" : "11.4",
				"行政区域" : "26109",
				"名称" : "美豆小学校",
				"住所" : "京都府京都市伏見区淀美豆町1244",
				"施設の種類" : "避難所",
				"収容人数" : "350",
				"施設規模" : null,
				"対象とする災害の分類" : "指定なし",
				"レベル" : "1"
			}
		},
		{
			"type" : "Feature",
			"geometry" : {
				"type" : "Point",
				"coordinates" : [ 135.766395886, 34.9290307529 ]
			},
			"properties" : {
				"高さ" : null,
				"行政区域" : "26109",
				"名称" : "伏見公園（グラウンド）",
				"住所" : "京都府京都市伏見区桃陵町",
				"施設の種類" : "広域避難場所",
				"収容人数" : "9500",
				"施設規模" : "19000",
				"対象とする災害の分類" : "指定なし",
				"レベル" : "3"
			}
		},
		{
			"type" : "Feature",
			"geometry" : {
				"type" : "Point",
				"coordinates" : [ 135.7653860004, 34.970117 ]
			},
			"properties" : {
				"高さ" : "8.9",
				"行政区域" : "26109",
				"名称" : "伏見工業高等学校",
				"住所" : "京都府京都市伏見区深草鈴塚町13",
				"施設の種類" : "避難所",
				"収容人数" : "450",
				"施設規模" : null,
				"対象とする災害の分類" : "指定なし",
				"レベル" : "1"
			}
		},
		{
			"type" : "Feature",
			"geometry" : {
				"type" : "Point",
				"coordinates" : [ 135.7624214734, 34.9437647587 ]
			},
			"properties" : {
				"高さ" : "14.6",
				"行政区域" : "26109",
				"名称" : "伏見住吉小学校",
				"住所" : "京都府京都市伏見区住吉町455",
				"施設の種類" : "避難所",
				"収容人数" : "300",
				"施設規模" : null,
				"対象とする災害の分類" : "指定なし",
				"レベル" : "1"
			}
		},
		{
			"type" : "Feature",
			"geometry" : {
				"type" : "Point",
				"coordinates" : [ 135.7604929996, 34.9381709999 ]
			},
			"properties" : {
				"高さ" : "18",
				"行政区域" : "26109",
				"名称" : "伏見中学校",
				"住所" : "京都府京都市伏見区御駕籠町97",
				"施設の種類" : "避難所",
				"収容人数" : "450",
				"施設規模" : null,
				"対象とする災害の分類" : "指定なし",
				"レベル" : "1"
			}
		},
		{
			"type" : "Feature",
			"geometry" : {
				"type" : "Point",
				"coordinates" : [ 135.7787850004, 34.9399849999 ]
			},
			"properties" : {
				"高さ" : null,
				"行政区域" : "26109",
				"名称" : "伏見桃山城公園",
				"住所" : "京都府京都市伏見区",
				"施設の種類" : "広域避難場所",
				"収容人数" : null,
				"施設規模" : null,
				"対象とする災害の分類" : "指定なし",
				"レベル" : "3"
			}
		},
		{
			"type" : "Feature",
			"geometry" : {
				"type" : "Point",
				"coordinates" : [ 135.7627613425, 34.9285485454 ]
			},
			"properties" : {
				"高さ" : "17.4",
				"行政区域" : "26109",
				"名称" : "伏見南浜小学校",
				"住所" : "京都府京都市伏見区丹後町142",
				"施設の種類" : "避難所",
				"収容人数" : "200",
				"施設規模" : null,
				"対象とする災害の分類" : "指定なし",
				"レベル" : "1"
			}
		},
		{
			"type" : "Feature",
			"geometry" : {
				"type" : "Point",
				"coordinates" : [ 135.7614400001, 34.9387870004 ]
			},
			"properties" : {
				"高さ" : "12.4",
				"行政区域" : "26109",
				"名称" : "伏見板橋小学校",
				"住所" : "京都府京都市伏見区下板橋町610",
				"施設の種類" : "避難所",
				"収容人数" : "250",
				"施設規模" : null,
				"対象とする災害の分類" : "指定なし",
				"レベル" : "1"
			}
		},
		{
			"type" : "Feature",
			"geometry" : {
				"type" : "Point",
				"coordinates" : [ 135.7808657259, 34.9416205358 ]
			},
			"properties" : {
				"高さ" : null,
				"行政区域" : "26109",
				"名称" : "伏見北堀公園",
				"住所" : "京都府京都市伏見区桃山町大蔵（他）",
				"施設の種類" : "広域避難場所",
				"収容人数" : "18650",
				"施設規模" : "37300",
				"対象とする災害の分類" : "指定なし",
				"レベル" : "3"
			}
		},
		{
			"type" : "Feature",
			"geometry" : {
				"type" : "Point",
				"coordinates" : [ 135.8220132807, 34.9570995058 ]
			},
			"properties" : {
				"高さ" : "11.8",
				"行政区域" : "26109",
				"名称" : "北醍醐小学校",
				"住所" : "京都府京都市伏見区醍醐片山町11",
				"施設の種類" : "避難所",
				"収容人数" : "350",
				"施設規模" : null,
				"対象とする災害の分類" : "指定なし",
				"レベル" : "1"
			}
		},
		{
			"type" : "Feature",
			"geometry" : {
				"type" : "Point",
				"coordinates" : [ 135.721831, 34.9036800002 ]
			},
			"properties" : {
				"高さ" : "11.5",
				"行政区域" : "26109",
				"名称" : "明親小学校",
				"住所" : "京都府京都市伏見区淀池上町106",
				"施設の種類" : "避難所",
				"収容人数" : "150",
				"施設規模" : null,
				"対象とする災害の分類" : "指定なし",
				"レベル" : "1"
			}
		},
		{
			"type" : "Feature",
			"geometry" : {
				"type" : "Point",
				"coordinates" : [ 135.7335819996, 34.9240390002 ]
			},
			"properties" : {
				"高さ" : "17",
				"行政区域" : "26109",
				"名称" : "洛水高等学校",
				"住所" : "京都府京都市伏見区横大路向ヒ18",
				"施設の種類" : "避難所",
				"収容人数" : "611",
				"施設規模" : null,
				"対象とする災害の分類" : "指定なし",
				"レベル" : "1"
			}
		},
		{
			"type" : "Feature",
			"geometry" : {
				"type" : "Point",
				"coordinates" : [ 135.7301650003, 34.9204560004 ]
			},
			"properties" : {
				"高さ" : "13.2",
				"行政区域" : "26109",
				"名称" : "洛水中学校",
				"住所" : "京都府京都市伏見区横大路竜ヶ池31",
				"施設の種類" : "避難所",
				"収容人数" : "300",
				"施設規模" : null,
				"対象とする災害の分類" : "指定なし",
				"レベル" : "1"
			}
		},
		{
			"type" : "Feature",
			"geometry" : {
				"type" : "Point",
				"coordinates" : [ 135.7778470849, 34.9623149739 ]
			},
			"properties" : {
				"高さ" : "27.1",
				"行政区域" : "26109",
				"名称" : "立命館中学校",
				"住所" : "京都府京都市伏見区深草西出山町23",
				"施設の種類" : "避難所",
				"収容人数" : "1000",
				"施設規模" : null,
				"対象とする災害の分類" : "指定なし",
				"レベル" : "1"
			}
		},
		{
			"type" : "Feature",
			"geometry" : {
				"type" : "Point",
				"coordinates" : [ 135.7781540757, 34.9619723618 ]
			},
			"properties" : {
				"高さ" : "27.1",
				"行政区域" : "26109",
				"名称" : "立命館高等学校",
				"住所" : "京都府京都市伏見区深草西出山町23",
				"施設の種類" : "避難所",
				"収容人数" : "1000",
				"施設規模" : null,
				"対象とする災害の分類" : "指定なし",
				"レベル" : "1"
			}
		},
		{
			"type" : "Feature",
			"geometry" : {
				"type" : "Point",
				"coordinates" : [ 135.7679960002, 34.9638129998 ]
			},
			"properties" : {
				"高さ" : "27.9",
				"行政区域" : "26109",
				"名称" : "龍谷大学",
				"住所" : "京都府京都市伏見区深草西浦町三丁目1",
				"施設の種類" : "避難所、避難場所",
				"収容人数" : "1750",
				"施設規模" : null,
				"対象とする災害の分類" : "指定なし",
				"レベル" : "1"
			}
		},
		{
			"type" : "Feature",
			"geometry" : {
				"type" : "Point",
				"coordinates" : [ 135.7136459184, 34.8974323533 ]
			},
			"properties" : {
				"高さ" : "11.4",
				"行政区域" : "26210",
				"名称" : "京都市立美豆小学校",
				"住所" : "京都府八幡市伏見区淀美豆町1244",
				"施設の種類" : "収容避難所、拠点避難地、一時避難地、広域避難地",
				"収容人数" : null,
				"施設規模" : null,
				"対象とする災害の分類" : "指定なし",
				"レベル" : "3"
			}
		}
	]
}