{
  "type": "FeatureCollection",
  "features": [
    {
      "type": "Feature",
      "geometry": {
        "type": "Point",
        "coordinates": [
          135.7541603497,
          35.0410426045
        ]
      },
      "properties": {
        "名称": "京都市北区役所",
        "種類": "地方の機関",
        "高さ": "17.8",
        "data_source": "PLATEAU",
        "category": "landmarks",
        "name": "京都市北区役所"
      }
    },
    {
      "type": "Feature",
      "geometry": {
        "type": "Point",
        "coordinates": [
          135.75184115,
          35.0483646156
        ]
      },
      "properties": {
        "名称": "北警察署",
        "種類": "警察署",
        "高さ": "20.7",
        "data_source": "PLATEAU",
        "category": "landmarks",
        "name": "北警察署"
      }
    },
    {
      "type": "Feature",
      "geometry": {
        "type": "Point",
        "coordinates": [
          135.7566254516,
          35.0578239559
        ]
      },
      "properties": {
        "名称": "北警察署上賀茂交番",
        "種類": "警察署",
        "高さ": "4",
        "data_source": "PLATEAU",
        "category": "landmarks",
        "name": "北警察署上賀茂交番"
      }
    },
    {
      "type": "Feature",
      "geometry": {
        "type": "Point",
        "coordinates": [
          135.7503623518,
          35.0645348267
        ]
      },
      "properties": {
        "名称": "北警察署柊野交番",
        "種類": "警察署",
        "高さ": "18.3",
        "data_source": "PLATEAU",
        "category": "landmarks",
        "name": "北警察署柊野交番"
      }
    },
    {
      "type": "Feature",
      "geometry": {
        "type": "Point",
        "coordinates": [
          135.7576872506,
          35.0437680646
        ]
      },
      "properties": {
        "名称": "北警察署北大路交番",
        "種類": "警察署",
        "高さ": "7.3",
        "data_source": "PLATEAU",
        "category": "landmarks",
        "name": "北警察署北大路交番"
      }
    },
    {
      "type": "Feature",
      "geometry": {
        "type": "Point",
        "coordinates": [
          135.7582961497,
          35.0403020448
        ]
      },
      "properties": {
        "名称": "京都市消防局北消防署紫明消防出張所",
        "種類": "消防署",
        "高さ": "9.5",
        "data_source": "PLATEAU",
        "category": "landmarks",
        "name": "京都市消防局北消防署紫明消防出張所"
      }
    },
    {
      "type": "Feature",
      "geometry": {
        "type": "Point",
        "coordinates": [
          135.7545592494,
          35.0403842953
        ]
      },
      "properties": {
        "名称": "国立京都教育大学附属京都小中学校初等部",
        "種類": "学校",
        "高さ": "17.7",
        "data_source": "PLATEAU",
        "category": "landmarks",
        "name": "国立京都教育大学附属京都小中学校初等部"
      }
    },
    {
      "type": "Feature",
      "geometry": {
        "type": "Point",
        "coordinates": [
          135.7537261502,
          35.0503234757
        ]
      },
      "properties": {
        "名称": "市立元町小学校",
        "種類": "学校",
        "高さ": "10",
        "data_source": "PLATEAU",
        "category": "landmarks",
        "name": "市立元町小学校"
      }
    },
    {
      "type": "Feature",
      "geometry": {
        "type": "Point",
        "coordinates": [
          135.750544151,
          35.0535707366
        ]
      },
      "properties": {
        "名称": "市立紫竹小学校",
        "種類": "学校",
        "高さ": "11.4",
        "data_source": "PLATEAU",
        "category": "landmarks",
        "name": "市立紫竹小学校"
      }
    },
    {
      "type": "Feature",
      "geometry": {
        "type": "Point",
        "coordinates": [
          135.75677915,
          35.0426970045
        ]
      },
      "properties": {
        "名称": "市立紫明小学校",
        "種類": "学校",
        "高さ": "11.2",
        "data_source": "PLATEAU",
        "category": "landmarks",
        "name": "市立紫明小学校"
      }
    },
    {
      "type": "Feature",
      "geometry": {
        "type": "Point",
        "coordinates": [
          135.75256345,
          35.045197945
        ]
      },
      "properties": {
        "名称": "市立鳳徳小学校",
        "種類": "学校",
        "高さ": "11.3",
        "data_source": "PLATEAU",
        "category": "landmarks",
        "name": "市立鳳徳小学校"
      }
    },
    {
      "type": "Feature",
      "geometry": {
        "type": "Point",
        "coordinates": [
          135.755256349,
          35.0397382447
        ]
      },
      "properties": {
        "名称": "国立京都教育大学附属京都小中学校中・高等部",
        "種類": "学校",
        "高さ": "12.1",
        "data_source": "PLATEAU",
        "category": "landmarks",
        "name": "国立京都教育大学附属京都小中学校中・高等部"
      }
    },
    {
      "type": "Feature",
      "geometry": {
        "type": "Point",
        "coordinates": [
          135.7567017537,
          35.0709739374
        ]
      },
      "properties": {
        "名称": "京都産業大学",
        "種類": "学校",
        "高さ": "20.3",
        "data_source": "PLATEAU",
        "category": "landmarks",
        "name": "京都産業大学"
      }
    },
    {
      "type": "Feature",
      "geometry": {
        "type": "Point",
        "coordinates": [
          135.7522814508,
          35.0545509661
        ]
      },
      "properties": {
        "名称": "市立加茂川中学校",
        "種類": "学校",
        "高さ": "11.6",
        "data_source": "PLATEAU",
        "category": "landmarks",
        "name": "市立加茂川中学校"
      }
    },
    {
      "type": "Feature",
      "geometry": {
        "type": "Point",
        "coordinates": [
          135.7576475518,
          35.0567239356
        ]
      },
      "properties": {
        "名称": "市立上賀茂小学校",
        "種類": "学校",
        "高さ": "11.3",
        "data_source": "PLATEAU",
        "category": "landmarks",
        "name": "市立上賀茂小学校"
      }
    },
    {
      "type": "Feature",
      "geometry": {
        "type": "Point",
        "coordinates": [
          135.7589082394,
          35.0422252837
        ]
      },
      "properties": {
        "名称": "大谷大学",
        "種類": "学校",
        "高さ": "19.9",
        "data_source": "PLATEAU",
        "category": "landmarks",
        "name": "大谷大学"
      }
    },
    {
      "type": "Feature",
      "geometry": {
        "type": "Point",
        "coordinates": [
          135.7581575195,
          35.0427140249
        ]
      },
      "properties": {
        "名称": "大谷大学短期大学部",
        "種類": "学校",
        "高さ": "19.4",
        "data_source": "PLATEAU",
        "category": "landmarks",
        "name": "大谷大学短期大学部"
      }
    },
    {
      "type": "Feature",
      "geometry": {
        "type": "Point",
        "coordinates": [
          135.7563642497,
          35.0437614745
        ]
      },
      "properties": {
        "名称": "私立立命館小学校",
        "種類": "学校",
        "高さ": "20.7",
        "data_source": "PLATEAU",
        "category": "landmarks",
        "name": "私立立命館小学校"
      }
    },
    {
      "type": "Feature",
      "geometry": {
        "type": "Point",
        "coordinates": [
          135.7550589497,
          35.0411093351
        ]
      },
      "properties": {
        "名称": "府立清明高等学校",
        "種類": "学校",
        "高さ": "10.1",
        "data_source": "PLATEAU",
        "category": "landmarks",
        "name": "府立清明高等学校"
      }
    },
    {
      "type": "Feature",
      "geometry": {
        "type": "Point",
        "coordinates": [
          135.75885735,
          35.039626384
        ]
      },
      "properties": {
        "名称": "京都鞍馬口医療センター",
        "種類": "病院",
        "高さ": "40.1",
        "data_source": "PLATEAU",
        "category": "landmarks",
        "name": "京都鞍馬口医療センター"
      }
    },
    {
      "type": "Feature",
      "geometry": {
        "type": "Point",
        "coordinates": [
          135.7518618499,
          35.0501942658
        ]
      },
      "properties": {
        "名称": "京都北郵便局",
        "種類": "郵便局",
        "高さ": "17.1",
        "data_source": "PLATEAU",
        "category": "landmarks",
        "name": "京都北郵便局"
      }
    },
    {
      "type": "Feature",
      "geometry": {
        "type": "Point",
        "coordinates": [
          135.7549344489,
          35.0378882043
        ]
      },
      "properties": {
        "名称": "京都小山中溝郵便局",
        "種類": "郵便局",
        "高さ": "7.7",
        "data_source": "PLATEAU",
        "category": "landmarks",
        "name": "京都小山中溝郵便局"
      }
    },
    {
      "type": "Feature",
      "geometry": {
        "type": "Point",
        "coordinates": [
          135.7549306505,
          35.0465383152
        ]
      },
      "properties": {
        "名称": "京都小山初音郵便局",
        "種類": "郵便局",
        "高さ": "7.6",
        "data_source": "PLATEAU",
        "category": "landmarks",
        "name": "京都小山初音郵便局"
      }
    },
    {
      "type": "Feature",
      "geometry": {
        "type": "Point",
        "coordinates": [
          135.7595278497,
          35.0410746649
        ]
      },
      "properties": {
        "名称": "京都小山西花池郵便局",
        "種類": "郵便局",
        "高さ": "7.4",
        "data_source": "PLATEAU",
        "category": "landmarks",
        "name": "京都小山西花池郵便局"
      }
    },
    {
      "type": "Feature",
      "geometry": {
        "type": "Point",
        "coordinates": [
          135.7622805502,
          35.0375847435
        ]
      },
      "properties": {
        "名称": "京都出雲路郵便局",
        "種類": "郵便局",
        "高さ": "12.8",
        "data_source": "PLATEAU",
        "category": "landmarks",
        "name": "京都出雲路郵便局"
      }
    },
    {
      "type": "Feature",
      "geometry": {
        "type": "Point",
        "coordinates": [
          135.7520294168,
          35.0417360109
        ]
      },
      "properties": {
        "名称": "京都紫野御所田郵便局",
        "種類": "郵便局",
        "高さ": "8",
        "data_source": "PLATEAU",
        "category": "landmarks",
        "name": "京都紫野御所田郵便局"
      }
    },
    {
      "type": "Feature",
      "geometry": {
        "type": "Point",
        "coordinates": [
          135.7508365504,
          35.054366116
        ]
      },
      "properties": {
        "名称": "高麗美術館",
        "種類": "博物館・美術館",
        "高さ": "9",
        "data_source": "PLATEAU",
        "category": "landmarks",
        "name": "高麗美術館"
      }
    },
    {
      "type": "Feature",
      "geometry": {
        "type": "Point",
        "coordinates": [
          135.7588028506,
          35.0432301044
        ]
      },
      "properties": {
        "名称": "大谷大学博物館",
        "種類": "博物館・美術館",
        "高さ": "27.1",
        "data_source": "PLATEAU",
        "category": "landmarks",
        "name": "大谷大学博物館"
      }
    },
    {
      "type": "Feature",
      "geometry": {
        "type": "Point",
        "coordinates": [
          135.7336391471,
          35.0393316263
        ]
      },
      "properties": {
        "名称": "北警察署金閣寺交番",
        "種類": "警察署",
        "高さ": "10",
        "data_source": "PLATEAU",
        "category": "landmarks",
        "name": "北警察署金閣寺交番"
      }
    },
    {
      "type": "Feature",
      "geometry": {
        "type": "Point",
        "coordinates": [
          135.7485823503,
          35.0505392766
        ]
      },
      "properties": {
        "名称": "北警察署紫竹交番",
        "種類": "警察署",
        "高さ": "6.3",
        "data_source": "PLATEAU",
        "category": "landmarks",
        "name": "北警察署紫竹交番"
      }
    },
    {
      "type": "Feature",
      "geometry": {
        "type": "Point",
        "coordinates": [
          135.7394645475,
          35.0377667361
        ]
      },
      "properties": {
        "名称": "北警察署十二坊交番",
        "種類": "警察署",
        "高さ": "5.5",
        "data_source": "PLATEAU",
        "category": "landmarks",
        "name": "北警察署十二坊交番"
      }
    },
    {
      "type": "Feature",
      "geometry": {
        "type": "Point",
        "coordinates": [
          135.7278977446,
          35.029950797
        ]
      },
      "properties": {
        "名称": "北警察署小松原交番",
        "種類": "警察署",
        "高さ": "3.7",
        "data_source": "PLATEAU",
        "category": "landmarks",
        "name": "北警察署小松原交番"
      }
    },
    {
      "type": "Feature",
      "geometry": {
        "type": "Point",
        "coordinates": [
          135.7439582511,
          35.0595825176
        ]
      },
      "properties": {
        "名称": "北警察署大宮交番",
        "種類": "警察署",
        "高さ": "4.3",
        "data_source": "PLATEAU",
        "category": "landmarks",
        "name": "北警察署大宮交番"
      }
    },
    {
      "type": "Feature",
      "geometry": {
        "type": "Point",
        "coordinates": [
          135.7473967484,
          35.0410851458
        ]
      },
      "properties": {
        "名称": "北警察署大徳寺前交番",
        "種類": "警察署",
        "高さ": "7.7",
        "data_source": "PLATEAU",
        "category": "landmarks",
        "name": "北警察署大徳寺前交番"
      }
    },
    {
      "type": "Feature",
      "geometry": {
        "type": "Point",
        "coordinates": [
          135.7341464483,
          35.0514310575
        ]
      },
      "properties": {
        "名称": "北警察署鷹ケ峯交番",
        "種類": "警察署",
        "高さ": "6.5",
        "data_source": "PLATEAU",
        "category": "landmarks",
        "name": "北警察署鷹ケ峯交番"
      }
    },
    {
      "type": "Feature",
      "geometry": {
        "type": "Point",
        "coordinates": [
          135.7438010803,
          35.0538820268
        ]
      },
      "properties": {
        "名称": "京都市消防局北消防署",
        "種類": "消防署",
        "高さ": "13.9",
        "data_source": "PLATEAU",
        "category": "landmarks",
        "name": "京都市消防局北消防署"
      }
    },
    {
      "type": "Feature",
      "geometry": {
        "type": "Point",
        "coordinates": [
          135.7473329487,
          35.0413547455
        ]
      },
      "properties": {
        "名称": "京都市消防局北消防署大徳寺消防出帳所",
        "種類": "消防署",
        "高さ": "13.1",
        "data_source": "PLATEAU",
        "category": "landmarks",
        "name": "京都市消防局北消防署大徳寺消防出帳所"
      }
    },
    {
      "type": "Feature",
      "geometry": {
        "type": "Point",
        "coordinates": [
          135.7322843449,
          35.0299008662
        ]
      },
      "properties": {
        "名称": "市立衣笠小学校",
        "種類": "学校",
        "高さ": "15.1",
        "data_source": "PLATEAU",
        "category": "landmarks",
        "name": "市立衣笠小学校"
      }
    },
    {
      "type": "Feature",
      "geometry": {
        "type": "Point",
        "coordinates": [
          135.7282459459,
          35.0364156666
        ]
      },
      "properties": {
        "名称": "市立金閣小学校",
        "種類": "学校",
        "高さ": "7.9",
        "data_source": "PLATEAU",
        "category": "landmarks",
        "name": "市立金閣小学校"
      }
    },
    {
      "type": "Feature",
      "geometry": {
        "type": "Point",
        "coordinates": [
          135.7465631498,
          35.0491315562
        ]
      },
      "properties": {
        "名称": "市立待鳳小学校",
        "種類": "学校",
        "高さ": "11.5",
        "data_source": "PLATEAU",
        "category": "landmarks",
        "name": "市立待鳳小学校"
      }
    },
    {
      "type": "Feature",
      "geometry": {
        "type": "Point",
        "coordinates": [
          135.7466291506,
          35.0589737267
        ]
      },
      "properties": {
        "名称": "市立大宮小学校",
        "種類": "学校",
        "高さ": "7.6",
        "data_source": "PLATEAU",
        "category": "landmarks",
        "name": "市立大宮小学校"
      }
    },
    {
      "type": "Feature",
      "geometry": {
        "type": "Point",
        "coordinates": [
          135.7284876443,
          35.0244255462
        ]
      },
      "properties": {
        "名称": "市立大将軍小学校",
        "種類": "学校",
        "高さ": "8.6",
        "data_source": "PLATEAU",
        "category": "landmarks",
        "name": "市立大将軍小学校"
      }
    },
    {
      "type": "Feature",
      "geometry": {
        "type": "Point",
        "coordinates": [
          135.7307938486,
          35.0544918277
        ]
      },
      "properties": {
        "名称": "市立鷹峯小学校",
        "種類": "学校",
        "高さ": "14.9",
        "data_source": "PLATEAU",
        "category": "landmarks",
        "name": "市立鷹峯小学校"
      }
    },
    {
      "type": "Feature",
      "geometry": {
        "type": "Point",
        "coordinates": [
          135.7368411465,
          35.0374757265
        ]
      },
      "properties": {
        "名称": "市立柏野小学校",
        "種類": "学校",
        "高さ": "12.1",
        "data_source": "PLATEAU",
        "category": "landmarks",
        "name": "市立柏野小学校"
      }
    },
    {
      "type": "Feature",
      "geometry": {
        "type": "Point",
        "coordinates": [
          135.7456526518,
          35.0694792084
        ]
      },
      "properties": {
        "名称": "市立柊野小学校",
        "種類": "学校",
        "高さ": "8.6",
        "data_source": "PLATEAU",
        "category": "landmarks",
        "name": "市立柊野小学校"
      }
    },
    {
      "type": "Feature",
      "geometry": {
        "type": "Point",
        "coordinates": [
          135.7398781488,
          35.0464874068
        ]
      },
      "properties": {
        "名称": "市立旭丘中学校",
        "種類": "学校",
        "高さ": "12.3",
        "data_source": "PLATEAU",
        "category": "landmarks",
        "name": "市立旭丘中学校"
      }
    },
    {
      "type": "Feature",
      "geometry": {
        "type": "Point",
        "coordinates": [
          135.7398427521,
          35.070672979
        ]
      },
      "properties": {
        "名称": "市立西賀茂中学校",
        "種類": "学校",
        "高さ": "14.4",
        "data_source": "PLATEAU",
        "category": "landmarks",
        "name": "市立西賀茂中学校"
      }
    },
    {
      "type": "Feature",
      "geometry": {
        "type": "Point",
        "coordinates": [
          135.7290055448,
          35.0290209266
        ]
      },
      "properties": {
        "名称": "私立洛星高等学校",
        "種類": "学校",
        "高さ": "18.4",
        "data_source": "PLATEAU",
        "category": "landmarks",
        "name": "私立洛星高等学校"
      }
    },
    {
      "type": "Feature",
      "geometry": {
        "type": "Point",
        "coordinates": [
          135.7290055448,
          35.0290209266
        ]
      },
      "properties": {
        "名称": "私立洛星中学校",
        "種類": "学校",
        "高さ": "18.4",
        "data_source": "PLATEAU",
        "category": "landmarks",
        "name": "私立洛星中学校"
      }
    },
    {
      "type": "Feature",
      "geometry": {
        "type": "Point",
        "coordinates": [
          135.7419430486,
          35.043080636
        ]
      },
      "properties": {
        "名称": "市立紫野高等学校",
        "種類": "学校",
        "高さ": "15.4",
        "data_source": "PLATEAU",
        "category": "landmarks",
        "name": "市立紫野高等学校"
      }
    },
    {
      "type": "Feature",
      "geometry": {
        "type": "Point",
        "coordinates": [
          135.7240712444,
          35.0332679272
        ]
      },
      "properties": {
        "名称": "立命館大学衣笠キャンパス",
        "種類": "学校",
        "高さ": "19.8",
        "data_source": "PLATEAU",
        "category": "landmarks",
        "name": "立命館大学衣笠キャンパス"
      }
    },
    {
      "type": "Feature",
      "geometry": {
        "type": "Point",
        "coordinates": [
          135.7277252438,
          35.023448056
        ]
      },
      "properties": {
        "名称": "京都府立医科大学(花園学舎)",
        "種類": "学校",
        "高さ": "25.3",
        "data_source": "PLATEAU",
        "category": "landmarks",
        "name": "京都府立医科大学(花園学舎)"
      }
    },
    {
      "type": "Feature",
      "geometry": {
        "type": "Point",
        "coordinates": [
          135.7260513454,
          35.0365475569
        ]
      },
      "properties": {
        "名称": "市立衣笠中学校",
        "種類": "学校",
        "高さ": "7.9",
        "data_source": "PLATEAU",
        "category": "landmarks",
        "name": "市立衣笠中学校"
      }
    },
    {
      "type": "Feature",
      "geometry": {
        "type": "Point",
        "coordinates": [
          135.7373145474,
          35.0401547063
        ]
      },
      "properties": {
        "名称": "府立盲学校花ノ坊校地",
        "種類": "学校",
        "高さ": "11.4",
        "data_source": "PLATEAU",
        "category": "landmarks",
        "name": "府立盲学校花ノ坊校地"
      }
    },
    {
      "type": "Feature",
      "geometry": {
        "type": "Point",
        "coordinates": [
          135.7388934482,
          35.0438063766
        ]
      },
      "properties": {
        "名称": "府立盲学校大徳寺校地",
        "種類": "学校",
        "高さ": "12.6",
        "data_source": "PLATEAU",
        "category": "landmarks",
        "name": "府立盲学校大徳寺校地"
      }
    },
    {
      "type": "Feature",
      "geometry": {
        "type": "Point",
        "coordinates": [
          135.7455976479,
          35.0399263856
        ]
      },
      "properties": {
        "名称": "市立紫野小学校",
        "種類": "学校",
        "高さ": "11.2",
        "data_source": "PLATEAU",
        "category": "landmarks",
        "name": "市立紫野小学校"
      }
    },
    {
      "type": "Feature",
      "geometry": {
        "type": "Point",
        "coordinates": [
          135.7372765478,
          35.0433142371
        ]
      },
      "properties": {
        "名称": "佛教大学紫野キャンパス",
        "種類": "学校",
        "高さ": "22.9",
        "data_source": "PLATEAU",
        "category": "landmarks",
        "name": "佛教大学紫野キャンパス"
      }
    },
    {
      "type": "Feature",
      "geometry": {
        "type": "Point",
        "coordinates": [
          135.7276872451,
          35.0321329463
        ]
      },
      "properties": {
        "名称": "京都小松原郵便局",
        "種類": "郵便局",
        "高さ": "7.6",
        "data_source": "PLATEAU",
        "category": "landmarks",
        "name": "京都小松原郵便局"
      }
    },
    {
      "type": "Feature",
      "geometry": {
        "type": "Point",
        "coordinates": [
          135.7301646447,
          35.0254433358
        ]
      },
      "properties": {
        "名称": "京都大将軍郵便局",
        "種類": "郵便局",
        "高さ": "7.1",
        "data_source": "PLATEAU",
        "category": "landmarks",
        "name": "京都大将軍郵便局"
      }
    },
    {
      "type": "Feature",
      "geometry": {
        "type": "Point",
        "coordinates": [
          135.733030047,
          35.038870677
        ]
      },
      "properties": {
        "名称": "金閣寺郵便局",
        "種類": "郵便局",
        "高さ": "5.9",
        "data_source": "PLATEAU",
        "category": "landmarks",
        "name": "金閣寺郵便局"
      }
    },
    {
      "type": "Feature",
      "geometry": {
        "type": "Point",
        "coordinates": [
          135.7442461721,
          35.0551997306
        ]
      },
      "properties": {
        "名称": "京都大宮小野堀郵便局",
        "種類": "郵便局",
        "高さ": "5.6",
        "data_source": "PLATEAU",
        "category": "landmarks",
        "name": "京都大宮小野堀郵便局"
      }
    },
    {
      "type": "Feature",
      "geometry": {
        "type": "Point",
        "coordinates": [
          135.749695552,
          35.0640350375
        ]
      },
      "properties": {
        "名称": "京都柊野郵便局",
        "種類": "郵便局",
        "高さ": "6.9",
        "data_source": "PLATEAU",
        "category": "landmarks",
        "name": "京都柊野郵便局"
      }
    },
    {
      "type": "Feature",
      "geometry": {
        "type": "Point",
        "coordinates": [
          135.7399415475,
          35.0408507166
        ]
      },
      "properties": {
        "名称": "京都北大路千本郵便局",
        "種類": "郵便局",
        "高さ": "7.4",
        "data_source": "PLATEAU",
        "category": "landmarks",
        "name": "京都北大路千本郵便局"
      }
    },
    {
      "type": "Feature",
      "geometry": {
        "type": "Point",
        "coordinates": [
          135.7361754482,
          35.0489502475
        ]
      },
      "properties": {
        "名称": "京都鷹峯郵便局",
        "種類": "郵便局",
        "高さ": "9.7",
        "data_source": "PLATEAU",
        "category": "landmarks",
        "name": "京都鷹峯郵便局"
      }
    },
    {
      "type": "Feature",
      "geometry": {
        "type": "Point",
        "coordinates": [
          135.7484043498,
          35.0476071358
        ]
      },
      "properties": {
        "名称": "京都紫竹郵便局",
        "種類": "郵便局",
        "高さ": "8.1",
        "data_source": "PLATEAU",
        "category": "landmarks",
        "name": "京都紫竹郵便局"
      }
    },
    {
      "type": "Feature",
      "geometry": {
        "type": "Point",
        "coordinates": [
          135.7273362452,
          35.0336895668
        ]
      },
      "properties": {
        "名称": "立命館大学国際平和ミュージアム",
        "種類": "博物館・美術館",
        "高さ": "19.8",
        "data_source": "PLATEAU",
        "category": "landmarks",
        "name": "立命館大学国際平和ミュージアム"
      }
    },
    {
      "type": "Feature",
      "geometry": {
        "type": "Point",
        "coordinates": [
          135.7556467473,
          35.0260312833
        ]
      },
      "properties": {
        "名称": "大阪国税局上京税務署",
        "種類": "国の機関",
        "高さ": "8.3",
        "data_source": "PLATEAU",
        "category": "landmarks",
        "name": "大阪国税局上京税務署"
      }
    },
    {
      "type": "Feature",
      "geometry": {
        "type": "Point",
        "coordinates": [
          135.7588663382,
          35.0295791636
        ]
      },
      "properties": {
        "名称": "京都保護観察所",
        "種類": "国の機関",
        "高さ": "8.3",
        "data_source": "PLATEAU",
        "category": "landmarks",
        "name": "京都保護観察所"
      }
    },
    {
      "type": "Feature",
      "geometry": {
        "type": "Point",
        "coordinates": [
          135.7657135489,
          35.024743803
        ]
      },
      "properties": {
        "名称": "京都迎賓館",
        "種類": "国の機関",
        "高さ": "9.7",
        "data_source": "PLATEAU",
        "category": "landmarks",
        "name": "京都迎賓館"
      }
    },
    {
      "type": "Feature",
      "geometry": {
        "type": "Point",
        "coordinates": [
          135.7600700661,
          35.0266409559
        ]
      },
      "properties": {
        "名称": "宮内庁京都事務所",
        "種類": "国の機関",
        "高さ": "5.7",
        "data_source": "PLATEAU",
        "category": "landmarks",
        "name": "宮内庁京都事務所"
      }
    },
    {
      "type": "Feature",
      "geometry": {
        "type": "Point",
        "coordinates": [
          135.7605422172,
          35.0184148528
        ]
      },
      "properties": {
        "名称": "京都御苑管理事務所",
        "種類": "国の機関",
        "高さ": "13.3",
        "data_source": "PLATEAU",
        "category": "landmarks",
        "name": "京都御苑管理事務所"
      }
    },
    {
      "type": "Feature",
      "geometry": {
        "type": "Point",
        "coordinates": [
          135.7701853486,
          35.0205214115
        ]
      },
      "properties": {
        "名称": "京都地方法務局",
        "種類": "国の機関",
        "高さ": "19.1",
        "data_source": "PLATEAU",
        "category": "landmarks",
        "name": "京都地方法務局"
      }
    },
    {
      "type": "Feature",
      "geometry": {
        "type": "Point",
        "coordinates": [
          135.7599166879,
          35.0217363229
        ]
      },
      "properties": {
        "名称": "皇宮警察本部京都護衛署",
        "種類": "国の機関",
        "高さ": "4.8",
        "data_source": "PLATEAU",
        "category": "landmarks",
        "name": "皇宮警察本部京都護衛署"
      }
    },
    {
      "type": "Feature",
      "geometry": {
        "type": "Point",
        "coordinates": [
          135.7556207473,
          35.0212459436
        ]
      },
      "properties": {
        "名称": "京都府庁舎",
        "種類": "ランドマーク",
        "高さ": "15.5",
        "data_source": "PLATEAU",
        "category": "landmarks",
        "name": "京都府庁舎"
      }
    },
    {
      "type": "Feature",
      "geometry": {
        "type": "Point",
        "coordinates": [
          135.7567261484,
          35.0295564937
        ]
      },
      "properties": {
        "名称": "京都市上京区役所",
        "種類": "地方の機関",
        "高さ": "17.9",
        "data_source": "PLATEAU",
        "category": "landmarks",
        "name": "京都市上京区役所"
      }
    },
    {
      "type": "Feature",
      "geometry": {
        "type": "Point",
        "coordinates": [
          135.7558754669,
          35.0221894934
        ]
      },
      "properties": {
        "名称": "京都府警察本部",
        "種類": "警察署",
        "高さ": "27.1",
        "data_source": "PLATEAU",
        "category": "landmarks",
        "name": "京都府警察本部"
      }
    },
    {
      "type": "Feature",
      "geometry": {
        "type": "Point",
        "coordinates": [
          135.758312848,
          35.0251301731
        ]
      },
      "properties": {
        "名称": "上京警察署室町中立売交番",
        "種類": "警察署",
        "高さ": "8",
        "data_source": "PLATEAU",
        "category": "landmarks",
        "name": "上京警察署室町中立売交番"
      }
    },
    {
      "type": "Feature",
      "geometry": {
        "type": "Point",
        "coordinates": [
          135.7697732501,
          35.0314858532
        ]
      },
      "properties": {
        "名称": "上京警察署出町交番",
        "種類": "警察署",
        "高さ": "7.3",
        "data_source": "PLATEAU",
        "category": "landmarks",
        "name": "上京警察署出町交番"
      }
    },
    {
      "type": "Feature",
      "geometry": {
        "type": "Point",
        "coordinates": [
          135.7595894487,
          35.0338501738
        ]
      },
      "properties": {
        "名称": "上京警察署上御霊前交番",
        "種類": "警察署",
        "高さ": "6.8",
        "data_source": "PLATEAU",
        "category": "landmarks",
        "name": "上京警察署上御霊前交番"
      }
    },
    {
      "type": "Feature",
      "geometry": {
        "type": "Point",
        "coordinates": [
          135.7552427467,
          35.0196432428
        ]
      },
      "properties": {
        "名称": "京都市消防局上京消防署",
        "種類": "消防署",
        "高さ": "22.8",
        "data_source": "PLATEAU",
        "category": "landmarks",
        "name": "京都市消防局上京消防署"
      }
    },
    {
      "type": "Feature",
      "geometry": {
        "type": "Point",
        "coordinates": [
          135.7676191491,
          35.0273268529
        ]
      },
      "properties": {
        "名称": "市立京極小学校",
        "種類": "学校",
        "高さ": "14.7",
        "data_source": "PLATEAU",
        "category": "landmarks",
        "name": "市立京極小学校"
      }
    },
    {
      "type": "Feature",
      "geometry": {
        "type": "Point",
        "coordinates": [
          135.7586171492,
          35.0336218837
        ]
      },
      "properties": {
        "名称": "市立室町小学校",
        "種類": "学校",
        "高さ": "14.1",
        "data_source": "PLATEAU",
        "category": "landmarks",
        "name": "市立室町小学校"
      }
    },
    {
      "type": "Feature",
      "geometry": {
        "type": "Point",
        "coordinates": [
          135.7599897497,
          35.0346831043
        ]
      },
      "properties": {
        "名称": "市立烏丸中学校",
        "種類": "学校",
        "高さ": "14",
        "data_source": "PLATEAU",
        "category": "landmarks",
        "name": "市立烏丸中学校"
      }
    },
    {
      "type": "Feature",
      "geometry": {
        "type": "Point",
        "coordinates": [
          135.7585802472,
          35.0197893832
        ]
      },
      "properties": {
        "名称": "私立平安女学院高等学校",
        "種類": "学校",
        "高さ": "23.1",
        "data_source": "PLATEAU",
        "category": "landmarks",
        "name": "私立平安女学院高等学校"
      }
    },
    {
      "type": "Feature",
      "geometry": {
        "type": "Point",
        "coordinates": [
          135.7680636687,
          35.020685412
        ]
      },
      "properties": {
        "名称": "府立鴨沂高等学校",
        "種類": "学校",
        "高さ": "17.7",
        "data_source": "PLATEAU",
        "category": "landmarks",
        "name": "府立鴨沂高等学校"
      }
    },
    {
      "type": "Feature",
      "geometry": {
        "type": "Point",
        "coordinates": [
          135.7641723993,
          35.030136643
        ]
      },
      "properties": {
        "名称": "同志社女子大学今出川キャンパス",
        "種類": "学校",
        "高さ": "10.7",
        "data_source": "PLATEAU",
        "category": "landmarks",
        "name": "同志社女子大学今出川キャンパス"
      }
    },
    {
      "type": "Feature",
      "geometry": {
        "type": "Point",
        "coordinates": [
          135.7614845484,
          35.0303693537
        ]
      },
      "properties": {
        "名称": "同志社大学今出川キャンパス",
        "種類": "学校",
        "高さ": "27.8",
        "data_source": "PLATEAU",
        "category": "landmarks",
        "name": "同志社大学今出川キャンパス"
      }
    },
    {
      "type": "Feature",
      "geometry": {
        "type": "Point",
        "coordinates": [
          135.7558690471,
          35.0253409735
        ]
      },
      "properties": {
        "名称": "市立新町小学校",
        "種類": "学校",
        "高さ": "21.5",
        "data_source": "PLATEAU",
        "category": "landmarks",
        "name": "市立新町小学校"
      }
    },
    {
      "type": "Feature",
      "geometry": {
        "type": "Point",
        "coordinates": [
          135.7704531949,
          35.0227497572
        ]
      },
      "properties": {
        "名称": "京都府立医科大学",
        "種類": "学校",
        "高さ": "34.3",
        "data_source": "PLATEAU",
        "category": "landmarks",
        "name": "京都府立医科大学"
      }
    },
    {
      "type": "Feature",
      "geometry": {
        "type": "Point",
        "coordinates": [
          135.7585802472,
          35.0197893832
        ]
      },
      "properties": {
        "名称": "私立平安女学院中学校",
        "種類": "学校",
        "高さ": "23.1",
        "data_source": "PLATEAU",
        "category": "landmarks",
        "name": "私立平安女学院中学校"
      }
    },
    {
      "type": "Feature",
      "geometry": {
        "type": "Point",
        "coordinates": [
          135.7575917473,
          35.0258922839
        ]
      },
      "properties": {
        "名称": "市立上京中学校",
        "種類": "学校",
        "高さ": "14.7",
        "data_source": "PLATEAU",
        "category": "landmarks",
        "name": "市立上京中学校"
      }
    },
    {
      "type": "Feature",
      "geometry": {
        "type": "Point",
        "coordinates": [
          135.755649848,
          35.0314050945
        ]
      },
      "properties": {
        "名称": "同志社大学新町キャンパス",
        "種類": "学校",
        "高さ": "22.5",
        "data_source": "PLATEAU",
        "category": "landmarks",
        "name": "同志社大学新町キャンパス"
      }
    },
    {
      "type": "Feature",
      "geometry": {
        "type": "Point",
        "coordinates": [
          135.7576592469,
          35.0194520332
        ]
      },
      "properties": {
        "名称": "平安女学院大学京都キャンパス",
        "種類": "学校",
        "高さ": "17.2",
        "data_source": "PLATEAU",
        "category": "landmarks",
        "name": "平安女学院大学京都キャンパス"
      }
    },
    {
      "type": "Feature",
      "geometry": {
        "type": "Point",
        "coordinates": [
          135.7552744477,
          35.025947114
        ]
      },
      "properties": {
        "名称": "私立京都美山高等学校",
        "種類": "学校",
        "高さ": "15.4",
        "data_source": "PLATEAU",
        "category": "landmarks",
        "name": "私立京都美山高等学校"
      }
    },
    {
      "type": "Feature",
      "geometry": {
        "type": "Point",
        "coordinates": [
          135.7599185295,
          35.0336374742
        ]
      },
      "properties": {
        "名称": "同志社大学烏丸キャンパス",
        "種類": "学校",
        "高さ": "13.8",
        "data_source": "PLATEAU",
        "category": "landmarks",
        "name": "同志社大学烏丸キャンパス"
      }
    },
    {
      "type": "Feature",
      "geometry": {
        "type": "Point",
        "coordinates": [
          135.750807658,
          35.035289635
        ]
      },
      "properties": {
        "名称": "市立北総合支援学校",
        "種類": "学校",
        "高さ": "23.4",
        "data_source": "PLATEAU",
        "category": "landmarks",
        "name": "市立北総合支援学校"
      }
    },
    {
      "type": "Feature",
      "geometry": {
        "type": "Point",
        "coordinates": [
          135.7685649982,
          35.0181336017
        ]
      },
      "properties": {
        "名称": "市立御所東小学校",
        "種類": "学校",
        "高さ": "16.5",
        "data_source": "PLATEAU",
        "category": "landmarks",
        "name": "市立御所東小学校"
      }
    },
    {
      "type": "Feature",
      "geometry": {
        "type": "Point",
        "coordinates": [
          135.7561293469,
          35.0190532829
        ]
      },
      "properties": {
        "名称": "京都第二赤十字病院",
        "種類": "病院",
        "高さ": "24.9",
        "data_source": "PLATEAU",
        "category": "landmarks",
        "name": "京都第二赤十字病院"
      }
    },
    {
      "type": "Feature",
      "geometry": {
        "type": "Point",
        "coordinates": [
          135.769930349,
          35.0243518924
        ]
      },
      "properties": {
        "名称": "京都府立医科大学附属病院",
        "種類": "病院",
        "高さ": "41",
        "data_source": "PLATEAU",
        "category": "landmarks",
        "name": "京都府立医科大学附属病院"
      }
    },
    {
      "type": "Feature",
      "geometry": {
        "type": "Point",
        "coordinates": [
          135.7523963477,
          35.0304076746
        ]
      },
      "properties": {
        "名称": "堀川病院",
        "種類": "病院",
        "高さ": "30.6",
        "data_source": "PLATEAU",
        "category": "landmarks",
        "name": "堀川病院"
      }
    },
    {
      "type": "Feature",
      "geometry": {
        "type": "Point",
        "coordinates": [
          135.7553388464,
          35.0194430735
        ]
      },
      "properties": {
        "名称": "京都府庁前郵便局",
        "種類": "郵便局",
        "高さ": "12.3",
        "data_source": "PLATEAU",
        "category": "landmarks",
        "name": "京都府庁前郵便局"
      }
    },
    {
      "type": "Feature",
      "geometry": {
        "type": "Point",
        "coordinates": [
          135.7579095794,
          35.0251293566
        ]
      },
      "properties": {
        "名称": "京都中立売室町郵便局",
        "種類": "郵便局",
        "高さ": "7.9",
        "data_source": "PLATEAU",
        "category": "landmarks",
        "name": "京都中立売室町郵便局"
      }
    },
    {
      "type": "Feature",
      "geometry": {
        "type": "Point",
        "coordinates": [
          135.758044949,
          35.0323552542
        ]
      },
      "properties": {
        "名称": "京都室町上立売郵便局",
        "種類": "郵便局",
        "高さ": "7.4",
        "data_source": "PLATEAU",
        "category": "landmarks",
        "name": "京都室町上立売郵便局"
      }
    },
    {
      "type": "Feature",
      "geometry": {
        "type": "Point",
        "coordinates": [
          135.7680495496,
          35.0290258225
        ]
      },
      "properties": {
        "名称": "京都出町郵便局",
        "種類": "郵便局",
        "高さ": "16.4",
        "data_source": "PLATEAU",
        "category": "landmarks",
        "name": "京都出町郵便局"
      }
    },
    {
      "type": "Feature",
      "geometry": {
        "type": "Point",
        "coordinates": [
          135.7695822489,
          35.021296102
        ]
      },
      "properties": {
        "名称": "京都荒神口郵便局",
        "種類": "郵便局",
        "高さ": "9",
        "data_source": "PLATEAU",
        "category": "landmarks",
        "name": "京都荒神口郵便局"
      }
    },
    {
      "type": "Feature",
      "geometry": {
        "type": "Point",
        "coordinates": [
          135.7704297494,
          35.0280278625
        ]
      },
      "properties": {
        "名称": "北村美術館",
        "種類": "博物館・美術館",
        "高さ": "6.8",
        "data_source": "PLATEAU",
        "category": "landmarks",
        "name": "北村美術館"
      }
    },
    {
      "type": "Feature",
      "geometry": {
        "type": "Point",
        "coordinates": [
          135.7532464475,
          35.0255828042
        ]
      },
      "properties": {
        "名称": "樂美術館",
        "種類": "博物館・美術館",
        "高さ": "10",
        "data_source": "PLATEAU",
        "category": "landmarks",
        "name": "樂美術館"
      }
    },
    {
      "type": "Feature",
      "geometry": {
        "type": "Point",
        "coordinates": [
          135.7520308484,
          35.0347076251
        ]
      },
      "properties": {
        "名称": "茶道資料館",
        "種類": "博物館・美術館",
        "高さ": "22.6",
        "data_source": "PLATEAU",
        "category": "landmarks",
        "name": "茶道資料館"
      }
    },
    {
      "type": "Feature",
      "geometry": {
        "type": "Point",
        "coordinates": [
          135.7487928466,
          35.024577894
        ]
      },
      "properties": {
        "名称": "京都労働局京都西陣公共職業安定所",
        "種類": "国の機関",
        "高さ": "16.3",
        "data_source": "PLATEAU",
        "category": "landmarks",
        "name": "京都労働局京都西陣公共職業安定所"
      }
    },
    {
      "type": "Feature",
      "geometry": {
        "type": "Point",
        "coordinates": [
          135.7363529455,
          35.0275879856
        ]
      },
      "properties": {
        "名称": "上京警察署",
        "種類": "警察署",
        "高さ": "14.9",
        "data_source": "PLATEAU",
        "category": "landmarks",
        "name": "上京警察署"
      }
    },
    {
      "type": "Feature",
      "geometry": {
        "type": "Point",
        "coordinates": [
          135.7469295458,
          35.0199700743
        ]
      },
      "properties": {
        "名称": "上京警察署下立売交番",
        "種類": "警察署",
        "高さ": "3.9",
        "data_source": "PLATEAU",
        "category": "landmarks",
        "name": "上京警察署下立売交番"
      }
    },
    {
      "type": "Feature",
      "geometry": {
        "type": "Point",
        "coordinates": [
          135.748895657,
          35.0298846742
        ]
      },
      "properties": {
        "名称": "上京警察署今出川大宮交番",
        "種類": "警察署",
        "高さ": "9.6",
        "data_source": "PLATEAU",
        "category": "landmarks",
        "name": "上京警察署今出川大宮交番"
      }
    },
    {
      "type": "Feature",
      "geometry": {
        "type": "Point",
        "coordinates": [
          135.7418621459,
          35.0251320146
        ]
      },
      "properties": {
        "名称": "上京警察署千本中立売交番",
        "種類": "警察署",
        "高さ": "10.6",
        "data_source": "PLATEAU",
        "category": "landmarks",
        "name": "上京警察署千本中立売交番"
      }
    },
    {
      "type": "Feature",
      "geometry": {
        "type": "Point",
        "coordinates": [
          135.7487987477,
          35.0356235652
        ]
      },
      "properties": {
        "名称": "上京警察署大宮頭交番",
        "種類": "警察署",
        "高さ": "10",
        "data_source": "PLATEAU",
        "category": "landmarks",
        "name": "上京警察署大宮頭交番"
      }
    },
    {
      "type": "Feature",
      "geometry": {
        "type": "Point",
        "coordinates": [
          135.7344047449,
          35.0282266754
        ]
      },
      "properties": {
        "名称": "京都市消防局上京消防署北野消防出張所",
        "種類": "消防署",
        "高さ": "11.3",
        "data_source": "PLATEAU",
        "category": "landmarks",
        "name": "京都市消防局上京消防署北野消防出張所"
      }
    },
    {
      "type": "Feature",
      "geometry": {
        "type": "Point",
        "coordinates": [
          135.7370030453,
          35.0251853854
        ]
      },
      "properties": {
        "名称": "市立仁和小学校",
        "種類": "学校",
        "高さ": "12.2",
        "data_source": "PLATEAU",
        "category": "landmarks",
        "name": "市立仁和小学校"
      }
    },
    {
      "type": "Feature",
      "geometry": {
        "type": "Point",
        "coordinates": [
          135.7479800473,
          35.0305590651
        ]
      },
      "properties": {
        "名称": "市立西陣中央小学校",
        "種類": "学校",
        "高さ": "18.1",
        "data_source": "PLATEAU",
        "category": "landmarks",
        "name": "市立西陣中央小学校"
      }
    },
    {
      "type": "Feature",
      "geometry": {
        "type": "Point",
        "coordinates": [
          135.7452977454,
          35.0190629345
        ]
      },
      "properties": {
        "名称": "市立二条城北小学校",
        "種類": "学校",
        "高さ": "14.9",
        "data_source": "PLATEAU",
        "category": "landmarks",
        "name": "市立二条城北小学校"
      }
    },
    {
      "type": "Feature",
      "geometry": {
        "type": "Point",
        "coordinates": [
          135.7382095463,
          35.0319406856
        ]
      },
      "properties": {
        "名称": "市立翔鸞小学校",
        "種類": "学校",
        "高さ": "12.6",
        "data_source": "PLATEAU",
        "category": "landmarks",
        "name": "市立翔鸞小学校"
      }
    },
    {
      "type": "Feature",
      "geometry": {
        "type": "Point",
        "coordinates": [
          135.7437834468,
          35.0308331555
        ]
      },
      "properties": {
        "名称": "市立嘉楽中学校",
        "種類": "学校",
        "高さ": "16.3",
        "data_source": "PLATEAU",
        "category": "landmarks",
        "name": "市立嘉楽中学校"
      }
    },
    {
      "type": "Feature",
      "geometry": {
        "type": "Point",
        "coordinates": [
          135.7425166467,
          35.0337803556
        ]
      },
      "properties": {
        "名称": "市立乾隆小学校",
        "種類": "学校",
        "高さ": "10.8",
        "data_source": "PLATEAU",
        "category": "landmarks",
        "name": "市立乾隆小学校"
      }
    },
    {
      "type": "Feature",
      "geometry": {
        "type": "Point",
        "coordinates": [
          135.745628846,
          35.0246458641
        ]
      },
      "properties": {
        "名称": "市立正親小学校",
        "種類": "学校",
        "高さ": "15.7",
        "data_source": "PLATEAU",
        "category": "landmarks",
        "name": "市立正親小学校"
      }
    },
    {
      "type": "Feature",
      "geometry": {
        "type": "Point",
        "coordinates": [
          135.7368676455,
          35.0277270252
        ]
      },
      "properties": {
        "名称": "相馬病院",
        "種類": "病院",
        "高さ": "19.5",
        "data_source": "PLATEAU",
        "category": "landmarks",
        "name": "相馬病院"
      }
    },
    {
      "type": "Feature",
      "geometry": {
        "type": "Point",
        "coordinates": [
          135.7391326691,
          35.0327922158
        ]
      },
      "properties": {
        "名称": "西陣病院",
        "種類": "病院",
        "高さ": "22",
        "data_source": "PLATEAU",
        "category": "landmarks",
        "name": "西陣病院"
      }
    },
    {
      "type": "Feature",
      "geometry": {
        "type": "Point",
        "coordinates": [
          135.7441105463,
          35.0295968753
        ]
      },
      "properties": {
        "名称": "西陣郵便局",
        "種類": "郵便局",
        "高さ": "14.4",
        "data_source": "PLATEAU",
        "category": "landmarks",
        "name": "西陣郵便局"
      }
    },
    {
      "type": "Feature",
      "geometry": {
        "type": "Point",
        "coordinates": [
          135.7362001446,
          35.0230384751
        ]
      },
      "properties": {
        "名称": "京都仁和郵便局",
        "種類": "郵便局",
        "高さ": "8.8",
        "data_source": "PLATEAU",
        "category": "landmarks",
        "name": "京都仁和郵便局"
      }
    },
    {
      "type": "Feature",
      "geometry": {
        "type": "Point",
        "coordinates": [
          135.7362242442,
          35.0194757548
        ]
      },
      "properties": {
        "名称": "京都御前下立売郵便局",
        "種類": "郵便局",
        "高さ": "7.4",
        "data_source": "PLATEAU",
        "category": "landmarks",
        "name": "京都御前下立売郵便局"
      }
    },
    {
      "type": "Feature",
      "geometry": {
        "type": "Point",
        "coordinates": [
          135.7382292457,
          35.0299320955
        ]
      },
      "properties": {
        "名称": "京都北野郵便局",
        "種類": "郵便局",
        "高さ": "7.6",
        "data_source": "PLATEAU",
        "category": "landmarks",
        "name": "京都北野郵便局"
      }
    },
    {
      "type": "Feature",
      "geometry": {
        "type": "Point",
        "coordinates": [
          135.7413170472,
          35.0333652754
        ]
      },
      "properties": {
        "名称": "京都千本寺之内郵便局",
        "種類": "郵便局",
        "高さ": "8.3",
        "data_source": "PLATEAU",
        "category": "landmarks",
        "name": "京都千本寺之内郵便局"
      }
    },
    {
      "type": "Feature",
      "geometry": {
        "type": "Point",
        "coordinates": [
          135.744058546,
          35.0251204743
        ]
      },
      "properties": {
        "名称": "京都中立売千本郵便局",
        "種類": "郵便局",
        "高さ": "8.7",
        "data_source": "PLATEAU",
        "category": "landmarks",
        "name": "京都中立売千本郵便局"
      }
    },
    {
      "type": "Feature",
      "geometry": {
        "type": "Point",
        "coordinates": [
          135.7492368455,
          35.0175188035
        ]
      },
      "properties": {
        "名称": "京都大宮丸太町郵便局",
        "種類": "郵便局",
        "高さ": "9",
        "data_source": "PLATEAU",
        "category": "landmarks",
        "name": "京都大宮丸太町郵便局"
      }
    },
    {
      "type": "Feature",
      "geometry": {
        "type": "Point",
        "coordinates": [
          135.7486220484,
          35.038598645
        ]
      },
      "properties": {
        "名称": "京都大宮鞍馬口郵便局",
        "種類": "郵便局",
        "高さ": "7.5",
        "data_source": "PLATEAU",
        "category": "landmarks",
        "name": "京都大宮鞍馬口郵便局"
      }
    },
    {
      "type": "Feature",
      "geometry": {
        "type": "Point",
        "coordinates": [
          135.7613194567,
          35.0868696379
        ]
      },
      "properties": {
        "名称": "下鴨警察署静市交番",
        "種類": "警察署",
        "高さ": "7.8",
        "data_source": "PLATEAU",
        "category": "landmarks",
        "name": "下鴨警察署静市交番"
      }
    },
    {
      "type": "Feature",
      "geometry": {
        "type": "Point",
        "coordinates": [
          135.7879805597,
          35.0853672451
        ]
      },
      "properties": {
        "名称": "市立岩倉北小学校",
        "種類": "学校",
        "高さ": "11.4",
        "data_source": "PLATEAU",
        "category": "landmarks",
        "name": "市立岩倉北小学校"
      }
    },
    {
      "type": "Feature",
      "geometry": {
        "type": "Point",
        "coordinates": [
          135.7648269575,
          35.0899977875
        ]
      },
      "properties": {
        "名称": "市立市原野小学校",
        "種類": "学校",
        "高さ": "10.5",
        "data_source": "PLATEAU",
        "category": "landmarks",
        "name": "市立市原野小学校"
      }
    },
    {
      "type": "Feature",
      "geometry": {
        "type": "Point",
        "coordinates": [
          135.8173246393,
          35.0847842595
        ]
      },
      "properties": {
        "名称": "市立八瀬小学校",
        "種類": "学校",
        "高さ": "9.7",
        "data_source": "PLATEAU",
        "category": "landmarks",
        "name": "市立八瀬小学校"
      }
    },
    {
      "type": "Feature",
      "geometry": {
        "type": "Point",
        "coordinates": [
          135.7623194564,
          35.0880024078
        ]
      },
      "properties": {
        "名称": "京都静市市原郵便局",
        "種類": "郵便局",
        "高さ": "7.4",
        "data_source": "PLATEAU",
        "category": "landmarks",
        "name": "京都静市市原郵便局"
      }
    },
    {
      "type": "Feature",
      "geometry": {
        "type": "Point",
        "coordinates": [
          135.7713134501,
          35.0326701731
        ]
      },
      "properties": {
        "名称": "京都家庭裁判所",
        "種類": "国の機関",
        "高さ": "12",
        "data_source": "PLATEAU",
        "category": "landmarks",
        "name": "京都家庭裁判所"
      }
    },
    {
      "type": "Feature",
      "geometry": {
        "type": "Point",
        "coordinates": [
          135.7729245498,
          35.0261979423
        ]
      },
      "properties": {
        "名称": "京都少年鑑別所",
        "種類": "国の機関",
        "高さ": "9",
        "data_source": "PLATEAU",
        "category": "landmarks",
        "name": "京都少年鑑別所"
      }
    },
    {
      "type": "Feature",
      "geometry": {
        "type": "Point",
        "coordinates": [
          135.7810356493,
          35.0176423908
        ]
      },
      "properties": {
        "名称": "大阪国税局左京税務署",
        "種類": "国の機関",
        "高さ": "11.8",
        "data_source": "PLATEAU",
        "category": "landmarks",
        "name": "大阪国税局左京税務署"
      }
    },
    {
      "type": "Feature",
      "geometry": {
        "type": "Point",
        "coordinates": [
          135.7785467534,
          35.048607833
        ]
      },
      "properties": {
        "名称": "京都市左京区役所",
        "種類": "地方の機関",
        "高さ": "17.7",
        "data_source": "PLATEAU",
        "category": "landmarks",
        "name": "京都市左京区役所"
      }
    },
    {
      "type": "Feature",
      "geometry": {
        "type": "Point",
        "coordinates": [
          135.7746186506,
          35.0331891329
        ]
      },
      "properties": {
        "名称": "下鴨警察署",
        "種類": "警察署",
        "高さ": "15.1",
        "data_source": "PLATEAU",
        "category": "landmarks",
        "name": "下鴨警察署"
      }
    },
    {
      "type": "Feature",
      "geometry": {
        "type": "Point",
        "coordinates": [
          135.7780962487,
          35.0150826505
        ]
      },
      "properties": {
        "名称": "川端警察署",
        "種類": "警察署",
        "高さ": "16.6",
        "data_source": "PLATEAU",
        "category": "landmarks",
        "name": "川端警察署"
      }
    },
    {
      "type": "Feature",
      "geometry": {
        "type": "Point",
        "coordinates": [
          135.8081243588,
          35.0650734218
        ]
      },
      "properties": {
        "名称": "下鴨警察署叡山口駐在所",
        "種類": "警察署",
        "高さ": "7.7",
        "data_source": "PLATEAU",
        "category": "landmarks",
        "name": "下鴨警察署叡山口駐在所"
      }
    },
    {
      "type": "Feature",
      "geometry": {
        "type": "Point",
        "coordinates": [
          135.772664039,
          35.0290504545
        ]
      },
      "properties": {
        "名称": "下鴨警察署加茂大橋交番",
        "種類": "警察署",
        "高さ": "6.6",
        "data_source": "PLATEAU",
        "category": "landmarks",
        "name": "下鴨警察署加茂大橋交番"
      }
    },
    {
      "type": "Feature",
      "geometry": {
        "type": "Point",
        "coordinates": [
          135.7880296577,
          35.0751540943
        ]
      },
      "properties": {
        "名称": "下鴨警察署岩倉交番",
        "種類": "警察署",
        "高さ": "7.3",
        "data_source": "PLATEAU",
        "category": "landmarks",
        "name": "下鴨警察署岩倉交番"
      }
    },
    {
      "type": "Feature",
      "geometry": {
        "type": "Point",
        "coordinates": [
          135.7810348531,
          35.0418480826
        ]
      },
      "properties": {
        "名称": "下鴨警察署高野交番",
        "種類": "警察署",
        "高さ": "6.3",
        "data_source": "PLATEAU",
        "category": "landmarks",
        "name": "下鴨警察署高野交番"
      }
    },
    {
      "type": "Feature",
      "geometry": {
        "type": "Point",
        "coordinates": [
          135.7685161512,
          35.0419927937
        ]
      },
      "properties": {
        "名称": "下鴨警察署芝本町交番",
        "種類": "警察署",
        "高さ": "6.1",
        "data_source": "PLATEAU",
        "category": "landmarks",
        "name": "下鴨警察署芝本町交番"
      }
    },
    {
      "type": "Feature",
      "geometry": {
        "type": "Point",
        "coordinates": [
          135.7917285555,
          35.0496931419
        ]
      },
      "properties": {
        "名称": "下鴨警察署修学院交番",
        "種類": "警察署",
        "高さ": "6.3",
        "data_source": "PLATEAU",
        "category": "landmarks",
        "name": "下鴨警察署修学院交番"
      }
    },
    {
      "type": "Feature",
      "geometry": {
        "type": "Point",
        "coordinates": [
          135.7912523569,
          35.0607882335
        ]
      },
      "properties": {
        "名称": "下鴨警察署上高野交番",
        "種類": "警察署",
        "高さ": "5.1",
        "data_source": "PLATEAU",
        "category": "landmarks",
        "name": "下鴨警察署上高野交番"
      }
    },
    {
      "type": "Feature",
      "geometry": {
        "type": "Point",
        "coordinates": [
          135.7736189532,
          35.0520868341
        ]
      },
      "properties": {
        "名称": "下鴨警察署北山交番",
        "種類": "警察署",
        "高さ": "7",
        "data_source": "PLATEAU",
        "category": "landmarks",
        "name": "下鴨警察署北山交番"
      }
    },
    {
      "type": "Feature",
      "geometry": {
        "type": "Point",
        "coordinates": [
          135.7928636529,
          35.0296948304
        ]
      },
      "properties": {
        "名称": "下鴨警察署北白川交番",
        "種類": "警察署",
        "高さ": "7.1",
        "data_source": "PLATEAU",
        "category": "landmarks",
        "name": "下鴨警察署北白川交番"
      }
    },
    {
      "type": "Feature",
      "geometry": {
        "type": "Point",
        "coordinates": [
          135.7822948491,
          35.0134601103
        ]
      },
      "properties": {
        "名称": "川端警察署岡崎公園交番",
        "種類": "警察署",
        "高さ": "7.7",
        "data_source": "PLATEAU",
        "category": "landmarks",
        "name": "川端警察署岡崎公園交番"
      }
    },
    {
      "type": "Feature",
      "geometry": {
        "type": "Point",
        "coordinates": [
          135.7927433521,
          35.0277461901
        ]
      },
      "properties": {
        "名称": "川端警察署銀閣寺交番",
        "種類": "警察署",
        "高さ": "4.9",
        "data_source": "PLATEAU",
        "category": "landmarks",
        "name": "川端警察署銀閣寺交番"
      }
    },
    {
      "type": "Feature",
      "geometry": {
        "type": "Point",
        "coordinates": [
          135.7857219497,
          35.0183761005
        ]
      },
      "properties": {
        "名称": "川端警察署黒谷交番",
        "種類": "警察署",
        "高さ": "7.3",
        "data_source": "PLATEAU",
        "category": "landmarks",
        "name": "川端警察署黒谷交番"
      }
    },
    {
      "type": "Feature",
      "geometry": {
        "type": "Point",
        "coordinates": [
          135.7764193497,
          35.0251281021
        ]
      },
      "properties": {
        "名称": "川端警察署東一条交番",
        "種類": "警察署",
        "高さ": "6.8",
        "data_source": "PLATEAU",
        "category": "landmarks",
        "name": "川端警察署東一条交番"
      }
    },
    {
      "type": "Feature",
      "geometry": {
        "type": "Point",
        "coordinates": [
          135.7879718496,
          35.0112862899
        ]
      },
      "properties": {
        "名称": "川端警察署南禅寺交番",
        "種類": "警察署",
        "高さ": "6.4",
        "data_source": "PLATEAU",
        "category": "landmarks",
        "name": "川端警察署南禅寺交番"
      }
    },
    {
      "type": "Feature",
      "geometry": {
        "type": "Point",
        "coordinates": [
          135.7804884488,
          35.0116502301
        ]
      },
      "properties": {
        "名称": "京都市消防局左京消防署岡崎消防出張所",
        "種類": "消防署",
        "高さ": "10.2",
        "data_source": "PLATEAU",
        "category": "landmarks",
        "name": "京都市消防局左京消防署岡崎消防出張所"
      }
    },
    {
      "type": "Feature",
      "geometry": {
        "type": "Point",
        "coordinates": [
          135.7930632516,
          35.0198985497
        ]
      },
      "properties": {
        "名称": "京都市消防局左京消防署鹿ヶ谷消防出張所",
        "種類": "消防署",
        "高さ": "9.4",
        "data_source": "PLATEAU",
        "category": "landmarks",
        "name": "京都市消防局左京消防署鹿ヶ谷消防出張所"
      }
    },
    {
      "type": "Feature",
      "geometry": {
        "type": "Point",
        "coordinates": [
          135.7810319521,
          35.0362873725
        ]
      },
      "properties": {
        "名称": "京都市消防局左京消防署",
        "種類": "消防署",
        "高さ": "16.9",
        "data_source": "PLATEAU",
        "category": "landmarks",
        "name": "京都市消防局左京消防署"
      }
    },
    {
      "type": "Feature",
      "geometry": {
        "type": "Point",
        "coordinates": [
          135.791782055,
          35.0481727919
        ]
      },
      "properties": {
        "名称": "京都市消防局左京消防署修学院消防出張所",
        "種類": "消防署",
        "高さ": "7.5",
        "data_source": "PLATEAU",
        "category": "landmarks",
        "name": "京都市消防局左京消防署修学院消防出張所"
      }
    },
    {
      "type": "Feature",
      "geometry": {
        "type": "Point",
        "coordinates": [
          135.7762986556,
          35.0675267746
        ]
      },
      "properties": {
        "名称": "京都市消防局左京消防署岩倉消防出張所",
        "種類": "消防署",
        "高さ": "8.7",
        "data_source": "PLATEAU",
        "category": "landmarks",
        "name": "京都市消防局左京消防署岩倉消防出張所"
      }
    },
    {
      "type": "Feature",
      "geometry": {
        "type": "Point",
        "coordinates": [
          135.7859592433,
          35.0665090819
        ]
      },
      "properties": {
        "名称": "私立同志社中学校",
        "種類": "学校",
        "高さ": "13.2",
        "data_source": "PLATEAU",
        "category": "landmarks",
        "name": "私立同志社中学校"
      }
    },
    {
      "type": "Feature",
      "geometry": {
        "type": "Point",
        "coordinates": [
          135.773323552,
          35.0455061336
        ]
      },
      "properties": {
        "名称": "市立葵小学校",
        "種類": "学校",
        "高さ": "11.2",
        "data_source": "PLATEAU",
        "category": "landmarks",
        "name": "市立葵小学校"
      }
    },
    {
      "type": "Feature",
      "geometry": {
        "type": "Point",
        "coordinates": [
          135.7849986568,
          35.0673466441
        ]
      },
      "properties": {
        "名称": "市立岩倉南小学校",
        "種類": "学校",
        "高さ": "13",
        "data_source": "PLATEAU",
        "category": "landmarks",
        "name": "市立岩倉南小学校"
      }
    },
    {
      "type": "Feature",
      "geometry": {
        "type": "Point",
        "coordinates": [
          135.7824123498,
          35.0181367804
        ]
      },
      "properties": {
        "名称": "市立錦林小学校",
        "種類": "学校",
        "高さ": "12.9",
        "data_source": "PLATEAU",
        "category": "landmarks",
        "name": "市立錦林小学校"
      }
    },
    {
      "type": "Feature",
      "geometry": {
        "type": "Point",
        "coordinates": [
          135.7885642538,
          35.0447910623
        ]
      },
      "properties": {
        "名称": "市立修学院第二小学校",
        "種類": "学校",
        "高さ": "11.5",
        "data_source": "PLATEAU",
        "category": "landmarks",
        "name": "市立修学院第二小学校"
      }
    },
    {
      "type": "Feature",
      "geometry": {
        "type": "Point",
        "coordinates": [
          135.7953069572,
          35.0613009628
        ]
      },
      "properties": {
        "名称": "市立上高野小学校",
        "種類": "学校",
        "高さ": "12.1",
        "data_source": "PLATEAU",
        "category": "landmarks",
        "name": "市立上高野小学校"
      }
    },
    {
      "type": "Feature",
      "geometry": {
        "type": "Point",
        "coordinates": [
          135.7747208495,
          35.0254363719
        ]
      },
      "properties": {
        "名称": "市立第四錦林小学校",
        "種類": "学校",
        "高さ": "11.3",
        "data_source": "PLATEAU",
        "category": "landmarks",
        "name": "市立第四錦林小学校"
      }
    },
    {
      "type": "Feature",
      "geometry": {
        "type": "Point",
        "coordinates": [
          135.7929310529,
          35.0320420908
        ]
      },
      "properties": {
        "名称": "市立北白川小学校",
        "種類": "学校",
        "高さ": "13.9",
        "data_source": "PLATEAU",
        "category": "landmarks",
        "name": "市立北白川小学校"
      }
    },
    {
      "type": "Feature",
      "geometry": {
        "type": "Point",
        "coordinates": [
          135.7863168582,
          35.0752506646
        ]
      },
      "properties": {
        "名称": "市立明徳小学校",
        "種類": "学校",
        "高さ": "12.3",
        "data_source": "PLATEAU",
        "category": "landmarks",
        "name": "市立明徳小学校"
      }
    },
    {
      "type": "Feature",
      "geometry": {
        "type": "Point",
        "coordinates": [
          135.7787022512,
          35.0326701724
        ]
      },
      "properties": {
        "名称": "市立養正小学校",
        "種類": "学校",
        "高さ": "12.1",
        "data_source": "PLATEAU",
        "category": "landmarks",
        "name": "市立養正小学校"
      }
    },
    {
      "type": "Feature",
      "geometry": {
        "type": "Point",
        "coordinates": [
          135.7835862529,
          35.037736772
        ]
      },
      "properties": {
        "名称": "市立養徳小学校",
        "種類": "学校",
        "高さ": "12",
        "data_source": "PLATEAU",
        "category": "landmarks",
        "name": "市立養徳小学校"
      }
    },
    {
      "type": "Feature",
      "geometry": {
        "type": "Point",
        "coordinates": [
          135.7799276499,
          35.021780341
        ]
      },
      "properties": {
        "名称": "市立近衛中学校",
        "種類": "学校",
        "高さ": "15",
        "data_source": "PLATEAU",
        "category": "landmarks",
        "name": "市立近衛中学校"
      }
    },
    {
      "type": "Feature",
      "geometry": {
        "type": "Point",
        "coordinates": [
          135.7832522531,
          35.039950582
        ]
      },
      "properties": {
        "名称": "市立高野中学校",
        "種類": "学校",
        "高さ": "11.6",
        "data_source": "PLATEAU",
        "category": "landmarks",
        "name": "市立高野中学校"
      }
    },
    {
      "type": "Feature",
      "geometry": {
        "type": "Point",
        "coordinates": [
          135.7886189539,
          35.0424757215
        ]
      },
      "properties": {
        "名称": "市立修学院中学校",
        "種類": "学校",
        "高さ": "14.8",
        "data_source": "PLATEAU",
        "category": "landmarks",
        "name": "市立修学院中学校"
      }
    },
    {
      "type": "Feature",
      "geometry": {
        "type": "Point",
        "coordinates": [
          135.7943751576,
          35.0137175374
        ]
      },
      "properties": {
        "名称": "私立東山中学校",
        "種類": "学校",
        "高さ": "15.7",
        "data_source": "PLATEAU",
        "category": "landmarks",
        "name": "私立東山中学校"
      }
    },
    {
      "type": "Feature",
      "geometry": {
        "type": "Point",
        "coordinates": [
          135.7730999138,
          35.024955161
        ]
      },
      "properties": {
        "名称": "私立京都精華学園中学校",
        "種類": "学校",
        "高さ": "15.8",
        "data_source": "PLATEAU",
        "category": "landmarks",
        "name": "私立京都精華学園中学校"
      }
    },
    {
      "type": "Feature",
      "geometry": {
        "type": "Point",
        "coordinates": [
          135.7731165702,
          35.0249819302
        ]
      },
      "properties": {
        "名称": "私立京都精華学園高等学校",
        "種類": "学校",
        "高さ": "15.8",
        "data_source": "PLATEAU",
        "category": "landmarks",
        "name": "私立京都精華学園高等学校"
      }
    },
    {
      "type": "Feature",
      "geometry": {
        "type": "Point",
        "coordinates": [
          135.7940331094,
          35.0133100555
        ]
      },
      "properties": {
        "名称": "私立東山高等学校",
        "種類": "学校",
        "高さ": "15.1",
        "data_source": "PLATEAU",
        "category": "landmarks",
        "name": "私立東山高等学校"
      }
    },
    {
      "type": "Feature",
      "geometry": {
        "type": "Point",
        "coordinates": [
          135.7716796523,
          35.0460581134
        ]
      },
      "properties": {
        "名称": "府立洛北高等学校",
        "種類": "学校",
        "高さ": "13.7",
        "data_source": "PLATEAU",
        "category": "landmarks",
        "name": "府立洛北高等学校"
      }
    },
    {
      "type": "Feature",
      "geometry": {
        "type": "Point",
        "coordinates": [
          135.7726467557,
          35.0740590659
        ]
      },
      "properties": {
        "名称": "京都精華大学",
        "種類": "学校",
        "高さ": "15.3",
        "data_source": "PLATEAU",
        "category": "landmarks",
        "name": "京都精華大学"
      }
    },
    {
      "type": "Feature",
      "geometry": {
        "type": "Point",
        "coordinates": [
          135.7791923107,
          35.025724731
        ]
      },
      "properties": {
        "名称": "京都大学吉田キャンパス",
        "種類": "学校",
        "高さ": "22.9",
        "data_source": "PLATEAU",
        "category": "landmarks",
        "name": "京都大学吉田キャンパス"
      }
    },
    {
      "type": "Feature",
      "geometry": {
        "type": "Point",
        "coordinates": [
          135.7668800519,
          35.0469118547
        ]
      },
      "properties": {
        "名称": "京都府立大学",
        "種類": "学校",
        "高さ": "13.5",
        "data_source": "PLATEAU",
        "category": "landmarks",
        "name": "京都府立大学"
      }
    },
    {
      "type": "Feature",
      "geometry": {
        "type": "Point",
        "coordinates": [
          135.768452251,
          35.0374201733
        ]
      },
      "properties": {
        "名称": "市立下鴨小学校",
        "種類": "学校",
        "高さ": "11.1",
        "data_source": "PLATEAU",
        "category": "landmarks",
        "name": "市立下鴨小学校"
      }
    },
    {
      "type": "Feature",
      "geometry": {
        "type": "Point",
        "coordinates": [
          135.7722250792,
          35.0506325575
        ]
      },
      "properties": {
        "名称": "京都ノートルダム女子大学",
        "種類": "学校",
        "高さ": "19.4",
        "data_source": "PLATEAU",
        "category": "landmarks",
        "name": "京都ノートルダム女子大学"
      }
    },
    {
      "type": "Feature",
      "geometry": {
        "type": "Point",
        "coordinates": [
          135.7731061559,
          35.0702196951
        ]
      },
      "properties": {
        "名称": "府立北稜高等学校",
        "種類": "学校",
        "高さ": "12.2",
        "data_source": "PLATEAU",
        "category": "landmarks",
        "name": "府立北稜高等学校"
      }
    },
    {
      "type": "Feature",
      "geometry": {
        "type": "Point",
        "coordinates": [
          135.7749541516,
          35.0385934832
        ]
      },
      "properties": {
        "名称": "市立下鴨中学校",
        "種類": "学校",
        "高さ": "11.7",
        "data_source": "PLATEAU",
        "category": "landmarks",
        "name": "市立下鴨中学校"
      }
    },
    {
      "type": "Feature",
      "geometry": {
        "type": "Point",
        "coordinates": [
          135.7808101488,
          35.0108600299
        ]
      },
      "properties": {
        "名称": "私立京都文教短期大学付属小学校",
        "種類": "学校",
        "高さ": "14.9",
        "data_source": "PLATEAU",
        "category": "landmarks",
        "name": "私立京都文教短期大学付属小学校"
      }
    },
    {
      "type": "Feature",
      "geometry": {
        "type": "Point",
        "coordinates": [
          135.7861590216,
          35.067455381
        ]
      },
      "properties": {
        "名称": "私立同志社高等学校",
        "種類": "学校",
        "高さ": "13.5",
        "data_source": "PLATEAU",
        "category": "landmarks",
        "name": "私立同志社高等学校"
      }
    },
    {
      "type": "Feature",
      "geometry": {
        "type": "Point",
        "coordinates": [
          135.787339957,
          35.0704089741
        ]
      },
      "properties": {
        "名称": "市立洛北中学校",
        "種類": "学校",
        "高さ": "15",
        "data_source": "PLATEAU",
        "category": "landmarks",
        "name": "市立洛北中学校"
      }
    },
    {
      "type": "Feature",
      "geometry": {
        "type": "Point",
        "coordinates": [
          135.7897897499,
          35.0162578
        ]
      },
      "properties": {
        "名称": "市立岡崎中学校",
        "種類": "学校",
        "高さ": "12.5",
        "data_source": "PLATEAU",
        "category": "landmarks",
        "name": "市立岡崎中学校"
      }
    },
    {
      "type": "Feature",
      "geometry": {
        "type": "Point",
        "coordinates": [
          135.7923479538,
          35.037480101
        ]
      },
      "properties": {
        "名称": "京都芸術大学",
        "種類": "学校",
        "高さ": "28.2",
        "data_source": "PLATEAU",
        "category": "landmarks",
        "name": "京都芸術大学"
      }
    },
    {
      "type": "Feature",
      "geometry": {
        "type": "Point",
        "coordinates": [
          135.794207256,
          35.053354282
        ]
      },
      "properties": {
        "名称": "市立修学院小学校",
        "種類": "学校",
        "高さ": "8.9",
        "data_source": "PLATEAU",
        "category": "landmarks",
        "name": "市立修学院小学校"
      }
    },
    {
      "type": "Feature",
      "geometry": {
        "type": "Point",
        "coordinates": [
          135.7797836482,
          35.0115709801
        ]
      },
      "properties": {
        "名称": "私立京都文教中学校",
        "種類": "学校",
        "高さ": "12.2",
        "data_source": "PLATEAU",
        "category": "landmarks",
        "name": "私立京都文教中学校"
      }
    },
    {
      "type": "Feature",
      "geometry": {
        "type": "Point",
        "coordinates": [
          135.7796560487,
          35.01088865
        ]
      },
      "properties": {
        "名称": "私立京都文教高等学校",
        "種類": "学校",
        "高さ": "20.2",
        "data_source": "PLATEAU",
        "category": "landmarks",
        "name": "私立京都文教高等学校"
      }
    },
    {
      "type": "Feature",
      "geometry": {
        "type": "Point",
        "coordinates": [
          135.7925634514,
          35.0191701698
        ]
      },
      "properties": {
        "名称": "市立第三錦林小学校",
        "種類": "学校",
        "高さ": "11.3",
        "data_source": "PLATEAU",
        "category": "landmarks",
        "name": "市立第三錦林小学校"
      }
    },
    {
      "type": "Feature",
      "geometry": {
        "type": "Point",
        "coordinates": [
          135.7967311513,
          35.0193870392
        ]
      },
      "properties": {
        "名称": "私立ノートルダム女学院中学校",
        "種類": "学校",
        "高さ": "27.9",
        "data_source": "PLATEAU",
        "category": "landmarks",
        "name": "私立ノートルダム女学院中学校"
      }
    },
    {
      "type": "Feature",
      "geometry": {
        "type": "Point",
        "coordinates": [
          135.7967311513,
          35.0193870392
        ]
      },
      "properties": {
        "名称": "私立ノートルダム女学院高等学校",
        "種類": "学校",
        "高さ": "27.9",
        "data_source": "PLATEAU",
        "category": "landmarks",
        "name": "私立ノートルダム女学院高等学校"
      }
    },
    {
      "type": "Feature",
      "geometry": {
        "type": "Point",
        "coordinates": [
          135.7814441536,
          35.0490839933
        ]
      },
      "properties": {
        "名称": "京都工芸繊維大学(松ヶ崎キャンパス)",
        "種類": "学校",
        "高さ": "16.9",
        "data_source": "PLATEAU",
        "category": "landmarks",
        "name": "京都工芸繊維大学(松ヶ崎キャンパス)"
      }
    },
    {
      "type": "Feature",
      "geometry": {
        "type": "Point",
        "coordinates": [
          135.7728234388,
          35.0513132418
        ]
      },
      "properties": {
        "名称": "私立ノートルダム学院小学校",
        "種類": "学校",
        "高さ": "18.4",
        "data_source": "PLATEAU",
        "category": "landmarks",
        "name": "私立ノートルダム学院小学校"
      }
    },
    {
      "type": "Feature",
      "geometry": {
        "type": "Point",
        "coordinates": [
          135.7820695545,
          35.0530294929
        ]
      },
      "properties": {
        "名称": "市立松ヶ崎小学校",
        "種類": "学校",
        "高さ": "11.1",
        "data_source": "PLATEAU",
        "category": "landmarks",
        "name": "市立松ヶ崎小学校"
      }
    },
    {
      "type": "Feature",
      "geometry": {
        "type": "Point",
        "coordinates": [
          135.7845956506,
          35.0203010007
        ]
      },
      "properties": {
        "名称": "市立白河総合支援学校",
        "種類": "学校",
        "高さ": "13",
        "data_source": "PLATEAU",
        "category": "landmarks",
        "name": "市立白河総合支援学校"
      }
    },
    {
      "type": "Feature",
      "geometry": {
        "type": "Point",
        "coordinates": [
          135.7716796523,
          35.0460581134
        ]
      },
      "properties": {
        "名称": "府立洛北高等学校附属中学校",
        "種類": "学校",
        "高さ": "13.7",
        "data_source": "PLATEAU",
        "category": "landmarks",
        "name": "府立洛北高等学校附属中学校"
      }
    },
    {
      "type": "Feature",
      "geometry": {
        "type": "Point",
        "coordinates": [
          135.786295957,
          35.0684608941
        ]
      },
      "properties": {
        "名称": "私立同志社小学校",
        "種類": "学校",
        "高さ": "10.5",
        "data_source": "PLATEAU",
        "category": "landmarks",
        "name": "私立同志社小学校"
      }
    },
    {
      "type": "Feature",
      "geometry": {
        "type": "Point",
        "coordinates": [
          135.7793225512,
          35.0306953617
        ]
      },
      "properties": {
        "名称": "京都情報大学院大学",
        "種類": "学校",
        "高さ": "8.6",
        "data_source": "PLATEAU",
        "category": "landmarks",
        "name": "京都情報大学院大学"
      }
    },
    {
      "type": "Feature",
      "geometry": {
        "type": "Point",
        "coordinates": [
          135.7774622191,
          35.0197436312
        ]
      },
      "properties": {
        "名称": "京都大学医学部附属病院",
        "種類": "病院",
        "高さ": "32.9",
        "data_source": "PLATEAU",
        "category": "landmarks",
        "name": "京都大学医学部附属病院"
      }
    },
    {
      "type": "Feature",
      "geometry": {
        "type": "Point",
        "coordinates": [
          135.7961969515,
          35.0339757859
        ]
      },
      "properties": {
        "名称": "総合病院日本バプテスト病院",
        "種類": "病院",
        "高さ": "17",
        "data_source": "PLATEAU",
        "category": "landmarks",
        "name": "総合病院日本バプテスト病院"
      }
    },
    {
      "type": "Feature",
      "geometry": {
        "type": "Point",
        "coordinates": [
          135.7785059522,
          35.0428397627
        ]
      },
      "properties": {
        "名称": "京都下鴨病院",
        "種類": "病院",
        "高さ": "15",
        "data_source": "PLATEAU",
        "category": "landmarks",
        "name": "京都下鴨病院"
      }
    },
    {
      "type": "Feature",
      "geometry": {
        "type": "Point",
        "coordinates": [
          135.7809478513,
          35.0314708218
        ]
      },
      "properties": {
        "名称": "京都民医連あすかい病院",
        "種類": "病院",
        "高さ": "17.1",
        "data_source": "PLATEAU",
        "category": "landmarks",
        "name": "京都民医連あすかい病院"
      }
    },
    {
      "type": "Feature",
      "geometry": {
        "type": "Point",
        "coordinates": [
          135.779498849,
          35.0181386306
        ]
      },
      "properties": {
        "名称": "吉川病院",
        "種類": "病院",
        "高さ": "18.2",
        "data_source": "PLATEAU",
        "category": "landmarks",
        "name": "吉川病院"
      }
    },
    {
      "type": "Feature",
      "geometry": {
        "type": "Point",
        "coordinates": [
          135.7836768581,
          35.0791977357
        ]
      },
      "properties": {
        "名称": "洛陽病院",
        "種類": "病院",
        "高さ": "15.2",
        "data_source": "PLATEAU",
        "category": "landmarks",
        "name": "洛陽病院"
      }
    },
    {
      "type": "Feature",
      "geometry": {
        "type": "Point",
        "coordinates": [
          135.7675760524,
          35.0518076644
        ]
      },
      "properties": {
        "名称": "京都北山郵便局",
        "種類": "郵便局",
        "高さ": "8.8",
        "data_source": "PLATEAU",
        "category": "landmarks",
        "name": "京都北山郵便局"
      }
    },
    {
      "type": "Feature",
      "geometry": {
        "type": "Point",
        "coordinates": [
          135.7808061529,
          35.0420946525
        ]
      },
      "properties": {
        "名称": "左京郵便局",
        "種類": "郵便局",
        "高さ": "22",
        "data_source": "PLATEAU",
        "category": "landmarks",
        "name": "左京郵便局"
      }
    },
    {
      "type": "Feature",
      "geometry": {
        "type": "Point",
        "coordinates": [
          135.7734597487,
          35.0174041916
        ]
      },
      "properties": {
        "名称": "京都丸太町川端郵便局",
        "種類": "郵便局",
        "高さ": "10.8",
        "data_source": "PLATEAU",
        "category": "landmarks",
        "name": "京都丸太町川端郵便局"
      }
    },
    {
      "type": "Feature",
      "geometry": {
        "type": "Point",
        "coordinates": [
          135.7743728502,
          35.0303384023
        ]
      },
      "properties": {
        "名称": "京都田中郵便局",
        "種類": "郵便局",
        "高さ": "13.6",
        "data_source": "PLATEAU",
        "category": "landmarks",
        "name": "京都田中郵便局"
      }
    },
    {
      "type": "Feature",
      "geometry": {
        "type": "Point",
        "coordinates": [
          135.775536748,
          35.0137594008
        ]
      },
      "properties": {
        "名称": "京都二条川端郵便局",
        "種類": "郵便局",
        "高さ": "6.4",
        "data_source": "PLATEAU",
        "category": "landmarks",
        "name": "京都二条川端郵便局"
      }
    },
    {
      "type": "Feature",
      "geometry": {
        "type": "Point",
        "coordinates": [
          135.7761588529,
          35.0443625032
        ]
      },
      "properties": {
        "名称": "京都下鴨高木郵便局",
        "種類": "郵便局",
        "高さ": "11.9",
        "data_source": "PLATEAU",
        "category": "landmarks",
        "name": "京都下鴨高木郵便局"
      }
    },
    {
      "type": "Feature",
      "geometry": {
        "type": "Point",
        "coordinates": [
          135.7739709497,
          35.025443982
        ]
      },
      "properties": {
        "名称": "京都吉田牛ノ宮郵便局",
        "種類": "郵便局",
        "高さ": "11",
        "data_source": "PLATEAU",
        "category": "landmarks",
        "name": "京都吉田牛ノ宮郵便局"
      }
    },
    {
      "type": "Feature",
      "geometry": {
        "type": "Point",
        "coordinates": [
          135.7791166496,
          35.0175661105
        ]
      },
      "properties": {
        "名称": "京都聖護院郵便局",
        "種類": "郵便局",
        "高さ": "6.1",
        "data_source": "PLATEAU",
        "category": "landmarks",
        "name": "京都聖護院郵便局"
      }
    },
    {
      "type": "Feature",
      "geometry": {
        "type": "Point",
        "coordinates": [
          135.7796748517,
          35.0373498822
        ]
      },
      "properties": {
        "名称": "京都高野東開郵便局",
        "種類": "郵便局",
        "高さ": "3.8",
        "data_source": "PLATEAU",
        "category": "landmarks",
        "name": "京都高野東開郵便局"
      }
    },
    {
      "type": "Feature",
      "geometry": {
        "type": "Point",
        "coordinates": [
          135.7796704511,
          35.0289788219
        ]
      },
      "properties": {
        "名称": "京都百万遍郵便局",
        "種類": "郵便局",
        "高さ": "12.4",
        "data_source": "PLATEAU",
        "category": "landmarks",
        "name": "京都百万遍郵便局"
      }
    },
    {
      "type": "Feature",
      "geometry": {
        "type": "Point",
        "coordinates": [
          135.7819284531,
          35.0431158326
        ]
      },
      "properties": {
        "名称": "京都高野竹屋郵便局",
        "種類": "郵便局",
        "高さ": "9.8",
        "data_source": "PLATEAU",
        "category": "landmarks",
        "name": "京都高野竹屋郵便局"
      }
    },
    {
      "type": "Feature",
      "geometry": {
        "type": "Point",
        "coordinates": [
          135.7826602502,
          35.0216721209
        ]
      },
      "properties": {
        "名称": "京都吉田郵便局",
        "種類": "郵便局",
        "高さ": "10.4",
        "data_source": "PLATEAU",
        "category": "landmarks",
        "name": "京都吉田郵便局"
      }
    },
    {
      "type": "Feature",
      "geometry": {
        "type": "Point",
        "coordinates": [
          135.7845404499,
          35.0177039005
        ]
      },
      "properties": {
        "名称": "京都岡崎郵便局",
        "種類": "郵便局",
        "高さ": "22.3",
        "data_source": "PLATEAU",
        "category": "landmarks",
        "name": "京都岡崎郵便局"
      }
    },
    {
      "type": "Feature",
      "geometry": {
        "type": "Point",
        "coordinates": [
          135.7847334521,
          35.0341967513
        ]
      },
      "properties": {
        "名称": "京都田中樋ノ口郵便局",
        "種類": "郵便局",
        "高さ": "6.4",
        "data_source": "PLATEAU",
        "category": "landmarks",
        "name": "京都田中樋ノ口郵便局"
      }
    },
    {
      "type": "Feature",
      "geometry": {
        "type": "Point",
        "coordinates": [
          135.7872810531,
          35.0367117917
        ]
      },
      "properties": {
        "名称": "京都田中高原郵便局",
        "種類": "郵便局",
        "高さ": "6.8",
        "data_source": "PLATEAU",
        "category": "landmarks",
        "name": "京都田中高原郵便局"
      }
    },
    {
      "type": "Feature",
      "geometry": {
        "type": "Point",
        "coordinates": [
          135.7878450582,
          35.0745233845
        ]
      },
      "properties": {
        "名称": "京都岩倉郵便局",
        "種類": "郵便局",
        "高さ": "6.5",
        "data_source": "PLATEAU",
        "category": "landmarks",
        "name": "京都岩倉郵便局"
      }
    },
    {
      "type": "Feature",
      "geometry": {
        "type": "Point",
        "coordinates": [
          135.7897159553,
          35.0501558523
        ]
      },
      "properties": {
        "名称": "京都山端郵便局",
        "種類": "郵便局",
        "高さ": "8",
        "data_source": "PLATEAU",
        "category": "landmarks",
        "name": "京都山端郵便局"
      }
    },
    {
      "type": "Feature",
      "geometry": {
        "type": "Point",
        "coordinates": [
          135.7908702506,
          35.01772046
        ]
      },
      "properties": {
        "名称": "京都天王町郵便局",
        "種類": "郵便局",
        "高さ": "19.1",
        "data_source": "PLATEAU",
        "category": "landmarks",
        "name": "京都天王町郵便局"
      }
    },
    {
      "type": "Feature",
      "geometry": {
        "type": "Point",
        "coordinates": [
          135.7913225519,
          35.0296873509
        ]
      },
      "properties": {
        "名称": "京都北白川郵便局",
        "種類": "郵便局",
        "高さ": "7.3",
        "data_source": "PLATEAU",
        "category": "landmarks",
        "name": "京都北白川郵便局"
      }
    },
    {
      "type": "Feature",
      "geometry": {
        "type": "Point",
        "coordinates": [
          135.7920615568,
          35.0586801325
        ]
      },
      "properties": {
        "名称": "京都上高野郵便局",
        "種類": "郵便局",
        "高さ": "10",
        "data_source": "PLATEAU",
        "category": "landmarks",
        "name": "京都上高野郵便局"
      }
    },
    {
      "type": "Feature",
      "geometry": {
        "type": "Point",
        "coordinates": [
          135.7921030539,
          35.0434359517
        ]
      },
      "properties": {
        "名称": "京都一乗寺郵便局",
        "種類": "郵便局",
        "高さ": "10.4",
        "data_source": "PLATEAU",
        "category": "landmarks",
        "name": "京都一乗寺郵便局"
      }
    },
    {
      "type": "Feature",
      "geometry": {
        "type": "Point",
        "coordinates": [
          135.7921414516,
          35.0250399005
        ]
      },
      "properties": {
        "名称": "京都浄土寺郵便局",
        "種類": "郵便局",
        "高さ": "9.9",
        "data_source": "PLATEAU",
        "category": "landmarks",
        "name": "京都浄土寺郵便局"
      }
    },
    {
      "type": "Feature",
      "geometry": {
        "type": "Point",
        "coordinates": [
          135.7706735516,
          35.0445282236
        ]
      },
      "properties": {
        "名称": "京都洛北高校前郵便局",
        "種類": "郵便局",
        "高さ": "6.8",
        "data_source": "PLATEAU",
        "category": "landmarks",
        "name": "京都洛北高校前郵便局"
      }
    },
    {
      "type": "Feature",
      "geometry": {
        "type": "Point",
        "coordinates": [
          135.7759638558,
          35.0657248245
        ]
      },
      "properties": {
        "名称": "京都岩倉幡枝郵便局",
        "種類": "郵便局",
        "高さ": "15.2",
        "data_source": "PLATEAU",
        "category": "landmarks",
        "name": "京都岩倉幡枝郵便局"
      }
    },
    {
      "type": "Feature",
      "geometry": {
        "type": "Point",
        "coordinates": [
          135.7928337506,
          35.0175936896
        ]
      },
      "properties": {
        "名称": "泉屋博古館",
        "種類": "博物館・美術館",
        "高さ": "14.5",
        "data_source": "PLATEAU",
        "category": "landmarks",
        "name": "泉屋博古館"
      }
    },
    {
      "type": "Feature",
      "geometry": {
        "type": "Point",
        "coordinates": [
          135.7811954542,
          35.0494600035
        ]
      },
      "properties": {
        "名称": "京都工芸繊維大学美術工芸資料館",
        "種類": "博物館・美術館",
        "高さ": "15.3",
        "data_source": "PLATEAU",
        "category": "landmarks",
        "name": "京都工芸繊維大学美術工芸資料館"
      }
    },
    {
      "type": "Feature",
      "geometry": {
        "type": "Point",
        "coordinates": [
          135.7938080469,
          35.027081269
        ]
      },
      "properties": {
        "名称": "白沙村荘橋本関雪記念館",
        "種類": "博物館・美術館",
        "高さ": "10",
        "data_source": "PLATEAU",
        "category": "landmarks",
        "name": "白沙村荘橋本関雪記念館"
      }
    },
    {
      "type": "Feature",
      "geometry": {
        "type": "Point",
        "coordinates": [
          135.7933653501,
          35.0129669192
        ]
      },
      "properties": {
        "名称": "野村美術館",
        "種類": "博物館・美術館",
        "高さ": "9.5",
        "data_source": "PLATEAU",
        "category": "landmarks",
        "name": "野村美術館"
      }
    },
    {
      "type": "Feature",
      "geometry": {
        "type": "Point",
        "coordinates": [
          135.7792050507,
          35.0271832813
        ]
      },
      "properties": {
        "名称": "京都大学総合博物館",
        "種類": "博物館・美術館",
        "高さ": "21.9",
        "data_source": "PLATEAU",
        "category": "landmarks",
        "name": "京都大学総合博物館"
      }
    },
    {
      "type": "Feature",
      "geometry": {
        "type": "Point",
        "coordinates": [
          135.7704340561,
          35.0727760662
        ]
      },
      "properties": {
        "名称": "京都精華大学ギャラリーフロール",
        "種類": "博物館・美術館",
        "高さ": "16.6",
        "data_source": "PLATEAU",
        "category": "landmarks",
        "name": "京都精華大学ギャラリーフロール"
      }
    },
    {
      "type": "Feature",
      "geometry": {
        "type": "Point",
        "coordinates": [
          135.7820034488,
          35.0123639805
        ]
      },
      "properties": {
        "名称": "京都国立近代美術館",
        "種類": "博物館・美術館",
        "高さ": "22.6",
        "data_source": "PLATEAU",
        "category": "landmarks",
        "name": "京都国立近代美術館"
      }
    },
    {
      "type": "Feature",
      "geometry": {
        "type": "Point",
        "coordinates": [
          135.7836206495,
          35.0128708302
        ]
      },
      "properties": {
        "名称": "京都市美術館",
        "種類": "博物館・美術館",
        "高さ": "21.6",
        "data_source": "PLATEAU",
        "category": "landmarks",
        "name": "京都市美術館"
      }
    },
    {
      "type": "Feature",
      "geometry": {
        "type": "Point",
        "coordinates": [
          135.7796895488,
          35.0138040805
        ]
      },
      "properties": {
        "名称": "細見美術館",
        "種類": "博物館・美術館",
        "高さ": "9.9",
        "data_source": "PLATEAU",
        "category": "landmarks",
        "name": "細見美術館"
      }
    },
    {
      "type": "Feature",
      "geometry": {
        "type": "Point",
        "coordinates": [
          135.7809543491,
          35.0128493106
        ]
      },
      "properties": {
        "名称": "日図デザイン博物館",
        "種類": "博物館・美術館",
        "高さ": "23",
        "data_source": "PLATEAU",
        "category": "landmarks",
        "name": "日図デザイン博物館"
      }
    },
    {
      "type": "Feature",
      "geometry": {
        "type": "Point",
        "coordinates": [
          135.7849921491,
          35.0131592796
        ]
      },
      "properties": {
        "名称": "京都市動物園",
        "種類": "博物館・美術館",
        "高さ": "11.7",
        "data_source": "PLATEAU",
        "category": "landmarks",
        "name": "京都市動物園"
      }
    },
    {
      "type": "Feature",
      "geometry": {
        "type": "Point",
        "coordinates": [
          135.7600087455,
          35.0045048614
        ]
      },
      "properties": {
        "名称": "近畿厚生局京都事務所",
        "種類": "国の機関",
        "高さ": "51.5",
        "data_source": "PLATEAU",
        "category": "landmarks",
        "name": "近畿厚生局京都事務所"
      }
    },
    {
      "type": "Feature",
      "geometry": {
        "type": "Point",
        "coordinates": [
          135.7644509472,
          35.0167620324
        ]
      },
      "properties": {
        "名称": "京都地方裁判所",
        "種類": "国の機関",
        "高さ": "26.7",
        "data_source": "PLATEAU",
        "category": "landmarks",
        "name": "京都地方裁判所"
      }
    },
    {
      "type": "Feature",
      "geometry": {
        "type": "Point",
        "coordinates": [
          135.7613570452,
          35.004007511
        ]
      },
      "properties": {
        "名称": "京都労働局京都下労働基準監督署",
        "種類": "国の機関",
        "高さ": "43",
        "data_source": "PLATEAU",
        "category": "landmarks",
        "name": "京都労働局京都下労働基準監督署"
      }
    },
    {
      "type": "Feature",
      "geometry": {
        "type": "Point",
        "coordinates": [
          135.7585299461,
          35.011422262
        ]
      },
      "properties": {
        "名称": "京都労働局",
        "種類": "国の機関",
        "高さ": "30.9",
        "data_source": "PLATEAU",
        "category": "landmarks",
        "name": "京都労働局"
      }
    },
    {
      "type": "Feature",
      "geometry": {
        "type": "Point",
        "coordinates": [
          135.7681173471,
          35.0116742017
        ]
      },
      "properties": {
        "名称": "京都市役所",
        "種類": "地方の機関",
        "高さ": "22.4",
        "data_source": "PLATEAU",
        "category": "landmarks",
        "name": "京都市役所"
      }
    },
    {
      "type": "Feature",
      "geometry": {
        "type": "Point",
        "coordinates": [
          135.7513967447,
          35.0100035029
        ]
      },
      "properties": {
        "名称": "京都市中京区役所",
        "種類": "地方の機関",
        "高さ": "22",
        "data_source": "PLATEAU",
        "category": "landmarks",
        "name": "京都市中京区役所"
      }
    },
    {
      "type": "Feature",
      "geometry": {
        "type": "Point",
        "coordinates": [
          135.763772236,
          35.0104231417
        ]
      },
      "properties": {
        "名称": "京都市保健所",
        "種類": "保健所",
        "高さ": "41.2",
        "data_source": "PLATEAU",
        "category": "landmarks",
        "name": "京都市保健所"
      }
    },
    {
      "type": "Feature",
      "geometry": {
        "type": "Point",
        "coordinates": [
          135.7597685465,
          35.017516663
        ]
      },
      "properties": {
        "名称": "中京警察署丸太町交番",
        "種類": "警察署",
        "高さ": "19.2",
        "data_source": "PLATEAU",
        "category": "landmarks",
        "name": "中京警察署丸太町交番"
      }
    },
    {
      "type": "Feature",
      "geometry": {
        "type": "Point",
        "coordinates": [
          135.752119944,
          35.0060985428
        ]
      },
      "properties": {
        "名称": "中京警察署東堀川交番",
        "種類": "警察署",
        "高さ": "6.2",
        "data_source": "PLATEAU",
        "category": "landmarks",
        "name": "中京警察署東堀川交番"
      }
    },
    {
      "type": "Feature",
      "geometry": {
        "type": "Point",
        "coordinates": [
          135.7594764458,
          35.011376392
        ]
      },
      "properties": {
        "名称": "中京警察署二条殿交番",
        "種類": "警察署",
        "高さ": "8.5",
        "data_source": "PLATEAU",
        "category": "landmarks",
        "name": "中京警察署二条殿交番"
      }
    },
    {
      "type": "Feature",
      "geometry": {
        "type": "Point",
        "coordinates": [
          135.7706944467,
          35.0065302409
        ]
      },
      "properties": {
        "名称": "中京警察署木屋町警備派出所",
        "種類": "警察署",
        "高さ": "7.9",
        "data_source": "PLATEAU",
        "category": "landmarks",
        "name": "中京警察署木屋町警備派出所"
      }
    },
    {
      "type": "Feature",
      "geometry": {
        "type": "Point",
        "coordinates": [
          135.770146148,
          35.0130846309
        ]
      },
      "properties": {
        "名称": "中京警察署木屋町二条交番",
        "種類": "警察署",
        "高さ": "6.5",
        "data_source": "PLATEAU",
        "category": "landmarks",
        "name": "中京警察署木屋町二条交番"
      }
    },
    {
      "type": "Feature",
      "geometry": {
        "type": "Point",
        "coordinates": [
          135.7674521474,
          35.0120426918
        ]
      },
      "properties": {
        "名称": "京都市消防局中京消防署寺町出張所",
        "種類": "消防署",
        "高さ": "33.7",
        "data_source": "PLATEAU",
        "category": "landmarks",
        "name": "京都市消防局中京消防署寺町出張所"
      }
    },
    {
      "type": "Feature",
      "geometry": {
        "type": "Point",
        "coordinates": [
          135.7683924472,
          35.0124272815
        ]
      },
      "properties": {
        "名称": "京都市消防局",
        "種類": "消防署",
        "高さ": "44",
        "data_source": "PLATEAU",
        "category": "landmarks",
        "name": "京都市消防局"
      }
    },
    {
      "type": "Feature",
      "geometry": {
        "type": "Point",
        "coordinates": [
          135.7644714471,
          35.0159764718
        ]
      },
      "properties": {
        "名称": "市立御所南小学校",
        "種類": "学校",
        "高さ": "22.1",
        "data_source": "PLATEAU",
        "category": "landmarks",
        "name": "市立御所南小学校"
      }
    },
    {
      "type": "Feature",
      "geometry": {
        "type": "Point",
        "coordinates": [
          135.7623522454,
          35.0069345814
        ]
      },
      "properties": {
        "名称": "市立高倉小学校",
        "種類": "学校",
        "高さ": "23.7",
        "data_source": "PLATEAU",
        "category": "landmarks",
        "name": "市立高倉小学校"
      }
    },
    {
      "type": "Feature",
      "geometry": {
        "type": "Point",
        "coordinates": [
          135.7701073478,
          35.0148529311
        ]
      },
      "properties": {
        "名称": "市立銅駝美術工芸高等学校",
        "種類": "学校",
        "高さ": "14.8",
        "data_source": "PLATEAU",
        "category": "landmarks",
        "name": "市立銅駝美術工芸高等学校"
      }
    },
    {
      "type": "Feature",
      "geometry": {
        "type": "Point",
        "coordinates": [
          135.752752644,
          35.0052414825
        ]
      },
      "properties": {
        "名称": "市立堀川高等学校",
        "種類": "学校",
        "高さ": "28.2",
        "data_source": "PLATEAU",
        "category": "landmarks",
        "name": "市立堀川高等学校"
      }
    },
    {
      "type": "Feature",
      "geometry": {
        "type": "Point",
        "coordinates": [
          135.7617751463,
          35.0097452517
        ]
      },
      "properties": {
        "名称": "市立洛風中学校",
        "種類": "学校",
        "高さ": "16.1",
        "data_source": "PLATEAU",
        "category": "landmarks",
        "name": "市立洛風中学校"
      }
    },
    {
      "type": "Feature",
      "geometry": {
        "type": "Point",
        "coordinates": [
          135.7642589466,
          35.0116093619
        ]
      },
      "properties": {
        "名称": "市立京都御池中学校",
        "種類": "学校",
        "高さ": "30.6",
        "data_source": "PLATEAU",
        "category": "landmarks",
        "name": "市立京都御池中学校"
      }
    },
    {
      "type": "Feature",
      "geometry": {
        "type": "Point",
        "coordinates": [
          135.7527636454,
          35.0121248427
        ]
      },
      "properties": {
        "名称": "市立京都堀川音楽高等学校",
        "種類": "学校",
        "高さ": "15.1",
        "data_source": "PLATEAU",
        "category": "landmarks",
        "name": "市立京都堀川音楽高等学校"
      }
    },
    {
      "type": "Feature",
      "geometry": {
        "type": "Point",
        "coordinates": [
          135.7522441447,
          35.0113676729
        ]
      },
      "properties": {
        "名称": "毛利病院",
        "種類": "病院",
        "高さ": "18.3",
        "data_source": "PLATEAU",
        "category": "landmarks",
        "name": "毛利病院"
      }
    },