{
  "type": "FeatureCollection",
  "features": [
    {
      "type": "Feature",
      "geometry": {
        "type": "Point",
        "coordinates": [
          135.672555,
          35.016722
        ]
      },
      "properties": {
        "leisure": "garden",
        "name": "百花苑",
        "name:en": "Garden of Hundred Flowers",
        "name:fr": "Jardin des Cent Fleurs",
        "name:ja-Hira": "ひゃっか えん",
        "name:ja-Latn": "Hyakkaen"
      }
    },
    {
      "type": "Feature",
      "geometry": {
        "type": "Point",
        "coordinates": [
          135.7990995,
          35.0270743
        ]
      },
      "properties": {
        "leisure": "garden",
        "name": "お茶の井庭園"
      }
    },
    {
      "type": "Feature",
      "geometry": {
        "type": "Point",
        "coordinates": [
          135.7983152,
          35.026746
        ]
      },
      "properties": {
        "leisure": "garden",
        "name": "銀沙灘"
      }
    },
    {
      "type": "Feature",
      "geometry": {
        "type": "Point",
        "coordinates": [
          135.685672,
          34.99289
        ]
      },
      "properties": {
        "leisure": "garden",
        "name": "松室やすらぎの庭",
        "name:en": "Garden of Ease in Matsumuro",
        "name:ja": "松室やすらぎの庭",
        "opening_hours": "9:00-17:00",
        "source": "Survey"
      }
    },
    {
      "type": "Feature",
      "geometry": {
        "type": "Point",
        "coordinates": [
          135.6835918,
          34.9928733
        ]
      },
      "properties": {
        "leisure": "garden",
        "name": "枯山水石組",
        "name:de": "Saihoji - Kokedera (Moos) Garten",
        "name:en": "Saihoji - Kokedera (Moos) Garden"
      }
    },
    {
      "type": "Feature",
      "geometry": {
        "type": "Point",
        "coordinates": [
          135.8212997,
          34.9972998
        ]
      },
      "properties": {
        "leisure": "park",
        "name": "山科保育園　トトロの森"
      }
    },
    {
      "type": "Feature",
      "geometry": {
        "type": "Point",
        "coordinates": [
          135.6463664,
          34.9358598
        ]
      },
      "properties": {
        "leisure": "park",
        "name": "吉峯寺展望所"
      }
    },
    {
      "type": "Feature",
      "geometry": {
        "type": "Point",
        "coordinates": [
          135.8174022,
          34.9922452
        ]
      },
      "properties": {
        "leisure": "park",
        "name": "山科駅前北広場"
      }
    },
    {
      "type": "Feature",
      "geometry": {
        "type": "Point",
        "coordinates": [
          135.8169722,
          34.991648
        ]
      },
      "properties": {
        "leisure": "park",
        "name": "山科駅前中広場"
      }
    },
    {
      "type": "Feature",
      "geometry": {
        "type": "Point",
        "coordinates": [
          135.7239462,
          34.9862505
        ]
      },
      "properties": {
        "leisure": "park",
        "name": "西中公園"
      }
    },
    {
      "type": "Feature",
      "geometry": {
        "type": "Point",
        "coordinates": [
          135.8190592,
          34.9720309
        ]
      },
      "properties": {
        "leisure": "garden",
        "name": "ロックガーデン"
      }
    },
    {
      "type": "Feature",
      "geometry": {
        "type": "Point",
        "coordinates": [
          135.7561375,
          35.0372319
        ]
      },
      "properties": {
        "access": "private",
        "leisure": "garden",
        "name": "擁翠園",
        "source": "bing"
      }
    },
    {
      "type": "Feature",
      "geometry": {
        "type": "Point",
        "coordinates": [
          135.7591242,
          35.0392292
        ]
      },
      "properties": {
        "leisure": "park",
        "name": "小山下総町"
      }
    },
    {
      "type": "Feature",
      "geometry": {
        "type": "Point",
        "coordinates": [
          135.8015513,
          35.0520401
        ]
      },
      "properties": {
        "leisure": "garden",
        "name": "中御茶屋"
      }
    },
    {
      "type": "Feature",
      "geometry": {
        "type": "Point",
        "coordinates": [
          135.8030426,
          35.0538582
        ]
      },
      "properties": {
        "leisure": "garden",
        "name": "上御茶屋"
      }
    },
    {
      "type": "Feature",
      "geometry": {
        "type": "Point",
        "coordinates": [
          135.8006179,
          35.053878
        ]
      },
      "properties": {
        "leisure": "garden",
        "name": "下御茶屋"
      }
    },
    {
      "type": "Feature",
      "geometry": {
        "type": "Point",
        "coordinates": [
          135.7235526,
          34.9939139
        ]
      },
      "properties": {
        "leisure": "park",
        "name": "東大丸公園"
      }
    },
    {
      "type": "Feature",
      "geometry": {
        "type": "Point",
        "coordinates": [
          135.7674474,
          35.0738835
        ]
      },
      "properties": {
        "leisure": "park",
        "name": "南市原第三公園"
      }
    },
    {
      "type": "Feature",
      "geometry": {
        "type": "Point",
        "coordinates": [
          135.7499813,
          35.0351149
        ]
      },
      "properties": {
        "charge": "500yen",
        "fee": "yes",
        "leisure": "garden",
        "name": "十六羅漢石庭",
        "operator": "妙蓮寺"
      }
    },
    {
      "type": "Feature",
      "geometry": {
        "type": "Point",
        "coordinates": [
          135.8073177,
          35.0249431
        ]
      },
      "properties": {
        "leisure": "garden",
        "name": "藤見台",
        "name:en": "Fujimidai",
        "source": "survey;local knowledge;gps"
      }
    },
    {
      "type": "Feature",
      "geometry": {
        "type": "Point",
        "coordinates": [
          135.8151423,
          35.0234723
        ]
      },
      "properties": {
        "leisure": "garden",
        "name": "天の原",
        "name:en": "Amanohara",
        "source": "survey;local knowledge;gps"
      }
    },
    {
      "type": "Feature",
      "geometry": {
        "type": "Point",
        "coordinates": [
          135.8093259,
          35.022255
        ]
      },
      "properties": {
        "access": "yes",
        "fee": "no",
        "leisure": "garden",
        "name": "和久井ガーデン",
        "name:en": "Wakui Garden",
        "source": "survey;local knowledge;gps"
      }
    },
    {
      "type": "Feature",
      "geometry": {
        "type": "Point",
        "coordinates": [
          135.6907903,
          35.0010756
        ]
      },
      "properties": {
        "leisure": "park",
        "name": "花壇公園"
      }
    },
    {
      "type": "Feature",
      "geometry": {
        "type": "Point",
        "coordinates": [
          135.7705961,
          35.0280217
        ]
      },
      "properties": {
        "leisure": "garden",
        "name": "四君子苑"
      }
    },
    {
      "type": "Feature",
      "geometry": {
        "type": "Point",
        "coordinates": [
          135.7763478,
          34.9909947
        ]
      },
      "properties": {
        "leisure": "garden",
        "name": "積翠園"
      }
    },
    {
      "type": "Feature",
      "geometry": {
        "type": "Point",
        "coordinates": [
          135.703057,
          34.9729931
        ]
      },
      "properties": {
        "garden:type": "community",
        "leisure": "garden"
      }
    },
    {
      "type": "Feature",
      "geometry": {
        "type": "Point",
        "coordinates": [
          135.7464895,
          35.0277082
        ]
      },
      "properties": {
        "leisure": "park",
        "name": "橘公園",
        "operator": "京都市"
      }
    },
    {
      "type": "Feature",
      "geometry": {
        "type": "Point",
        "coordinates": [
          135.7672322,
          34.9643844
        ]
      },
      "properties": {
        "garden:type": "botanical",
        "leisure": "garden"
      }
    },
    {
      "type": "Feature",
      "geometry": {
        "type": "Point",
        "coordinates": [
          135.7756301,
          35.0529999
        ]
      },
      "properties": {
        "leisure": "park",
        "name": "京都ノートルダム女子大学グラウンド"
      }
    },
    {
      "type": "Feature",
      "geometry": {
        "type": "Point",
        "coordinates": [
          135.76257312222222,
          34.99138242222222
        ]
      },
      "properties": {
        "addr:city": "京都市",
        "addr:postcode": "600-8505",
        "addr:province": "京都府",
        "addr:quarter": "烏丸通七条上る",
        "addr:suburb": "下京区",
        "architect": "石川丈山",
        "architect:wikidata": "Q11585666",
        "contact:facebook": "shoseien",
        "contact:phone": "+81 75-371-9210",
        "contact:tripadvisor": "545958",
        "contact:website": "https://www.higashihonganji.or.jp/about/guide/shoseien/",
        "fee": "yes",
        "heritage:type": "名勝",
        "heritage:wikidata": "Q11414752",
        "leisure": "garden",
        "name": "渉成園",
        "name:de": "Shoseien",
        "name:en": "Shosei Garden",
        "name:etymology": "帰去来の辞",
        "name:etymology:wikidata": "Q18824846",
        "name:fr": "Jardin Shosei",
        "name:ja": "渉成園",
        "name:ja-Hira": "しょうせいえん",
        "name:ja-Latn": "Shosei-en",
        "opening_hours": "Mo-Su 09:00-17:00",
        "operator": "東本願寺",
        "operator:wikidata": "Q910281",
        "start_date": "1653",
        "wikidata": "Q795048",
        "wikimedia_commons": "Category:Shoseien",
        "wikipedia": "ja:渉成園"
      }
    },
    {
      "type": "Feature",
      "geometry": {
        "type": "Point",
        "coordinates": [
          135.70951804,
          34.956283400000004
        ]
      },
      "properties": {
        "leisure": "park",
        "name": "JR駅前ふれあい広場",
        "name:en": "JR EKIMAEFUREAI PARK"
      }
    },
    {
      "type": "Feature",
      "geometry": {
        "type": "Point",
        "coordinates": [
          135.78070419607843,
          35.00387377254902
        ]
      },
      "properties": {
        "architect": "武田五一; 小川治兵衛",
        "architect:wikidata": "Q11546087;Q758744",
        "contact:instagram": "maruyamakouenkyoto",
        "contact:tripadvisor": "548250",
        "contact:website": "https://kyoto-maruyama-park.jp/",
        "leisure": "park",
        "name": "円山公園",
        "name:en": "Maruyama Park",
        "name:fr": "Parc Maruyama",
        "name:ja-Hira": "まるやまこうえん",
        "name:ja-Latn": "Maruyama-kōen",
        "name:ko": "마루야마 공원",
        "start_date": "1886-12-25",
        "wikidata": "Q1108695",
        "wikimedia_commons": "Category:Maruyama Park (Kyoto)",
        "wikipedia": "ja:円山公園 (京都府)"
      }
    },
    {
      "type": "Feature",
      "geometry": {
        "type": "Point",
        "coordinates": [
          135.75177173636365,
          34.98479025454545
        ]
      },
      "properties": {
        "leisure": "park",
        "name": "戒光寺公園 (Kaikouzikouen)"
      }
    },
    {
      "type": "Feature",
      "geometry": {
        "type": "Point",
        "coordinates": [
          135.75271519999998,
          34.98466006666666
        ]
      },
      "properties": {
        "leisure": "park",
        "name": "寺ノ前児童公園"
      }
    },
    {
      "type": "Feature",
      "geometry": {
        "type": "Point",
        "coordinates": [
          135.68513158,
          34.956188000000004
        ]
      },
      "properties": {
        "addr:city": "京都府京都市西京区大枝南福西町",
        "addr:housenumber": "3丁目19",
        "addr:postcode": "610-1113",
        "leisure": "park",
        "name": "南福西児童公園",
        "note": "遊具：ブランコ、他。 トイレ、水道あり。",
        "source": "京都市建設局みどり政策推進室、『京都市の公園平成26年（2014年）度版』"
      }
    },
    {
      "type": "Feature",
      "geometry": {
        "type": "Point",
        "coordinates": [
          135.7630235291667,
          35.0493706625
        ]
      },
      "properties": {
        "charge:adult": "200 JPY",
        "charge:child": "150 JPY",
        "contact:email": "kbg-soumu@pref.kyoto.lg.jp",
        "contact:instagram": "kyoto_botagrdns",
        "contact:tripadvisor": "1798946",
        "contact:twitter": "kyotobotagarden",
        "contact:website": "http://www.pref.kyoto.jp/plant/",
        "contact:youtube": "UCy_HZkAAMIqJXXcqGQzh8fQ",
        "fee": "yes",
        "garden:type": "botanical",
        "leisure": "garden",
        "name": "京都府立植物園",
        "name:en": "Kyoto Botanical Garden",
        "name:fr": "Jardin botanique de Kyoto",
        "name:ja-Hira": "きょうとふりつしょくぶつえん",
        "name:ja-Latn": "Kyōto-furitsu-shokubutsuen",
        "name:zh": "京都府立植物园",
        "opening_hours": "Mo-Su 09:00-17:00; Dec 28-Jan 04 off",
        "start_date": "1923-11-10",
        "wikidata": "Q3106834",
        "wikimedia_commons": "Category:Kyoto Botanical Garden",
        "wikipedia": "ja:京都府立植物園"
      }
    },
    {
      "type": "Feature",
      "geometry": {
        "type": "Point",
        "coordinates": [
          135.74993707000002,
          35.014088126666664
        ]
      },
      "properties": {
        "leisure": "garden",
        "source": "Bing"
      }
    },
    {
      "type": "Feature",
      "geometry": {
        "type": "Point",
        "coordinates": [
          135.74923201153848,
          35.014266180769226
        ]
      },
      "properties": {
        "leisure": "garden",
        "source": "Bing"
      }
    },
    {
      "type": "Feature",
      "geometry": {
        "type": "Point",
        "coordinates": [
          135.75846950000002,
          34.992281628
        ]
      },
      "properties": {
        "leisure": "garden",
        "source": "Bing"
      }
    },
    {
      "type": "Feature",
      "geometry": {
        "type": "Point",
        "coordinates": [
          135.7580236272727,
          34.99214609090909
        ]
      },
      "properties": {
        "leisure": "garden",
        "source": "Bing"
      }
    },
    {
      "type": "Feature",
      "geometry": {
        "type": "Point",
        "coordinates": [
          135.76485171818183,
          34.995010481818184
        ]
      },
      "properties": {
        "leisure": "garden"
      }
    },
    {
      "type": "Feature",
      "geometry": {
        "type": "Point",
        "coordinates": [
          135.76454316428573,
          34.99497531428571
        ]
      },
      "properties": {
        "leisure": "garden"
      }
    },
    {
      "type": "Feature",
      "geometry": {
        "type": "Point",
        "coordinates": [
          135.74937360399994,
          35.01349658266668
        ]
      },
      "properties": {
        "leisure": "garden",
        "name": "二の丸庭園",
        "name:en": "Ninomaru Garden",
        "name:fr": "Jardin Ninomaru",
        "name:ja-Hira": "にのまる ていえん",
        "name:ja-Latn": "Ninomaru-teien",
        "name:zh": "二之丸庭园",
        "source": "Bing"
      }
    },
    {
      "type": "Feature",
      "geometry": {
        "type": "Point",
        "coordinates": [
          135.74925833157894,
          35.013507981578954
        ]
      },
      "properties": {
        "leisure": "garden",
        "name:en": "Horai-jima",
        "source": "Bing"
      }
    },
    {
      "type": "Feature",
      "geometry": {
        "type": "Point",
        "coordinates": [
          135.75053525333334,
          35.01287685333333
        ]
      },
      "properties": {
        "leisure": "garden",
        "source": "Bing"
      }
    },
    {
      "type": "Feature",
      "geometry": {
        "type": "Point",
        "coordinates": [
          135.7460225772727,
          35.01669262272728
        ]
      },
      "properties": {
        "leisure": "park",
        "name": "二条公園",
        "name:en": "Nijō Park"
      }
    },
    {
      "type": "Feature",
      "geometry": {
        "type": "Point",
        "coordinates": [
          135.76232561428571,
          35.024738885714285
        ]
      },
      "properties": {
        "leisure": "garden",
        "source": "Bing, 2007-12"
      }
    },
    {
      "type": "Feature",
      "geometry": {
        "type": "Point",
        "coordinates": [
          135.76238876,
          35.02455172
        ]
      },
      "properties": {
        "leisure": "garden",
        "source": "Bing, 2007-12"
      }
    },
    {
      "type": "Feature",
      "geometry": {
        "type": "Point",
        "coordinates": [
          135.76151584285714,
          35.02439071428572
        ]
      },
      "properties": {
        "leisure": "garden",
        "source": "Bing, 2007-12"
      }
    },
    {
      "type": "Feature",
      "geometry": {
        "type": "Point",
        "coordinates": [
          135.7181592,
          35.0344057
        ]
      },
      "properties": {
        "landcover": "gravel",
        "leisure": "garden",
        "name": "石庭",
        "name:de": "Steingarten",
        "name:en": "The Rock Garden",
        "name:fr": "Jardin sec",
        "source": "Bing, 2007-12"
      }
    },
    {
      "type": "Feature",
      "geometry": {
        "type": "Point",
        "coordinates": [
          135.7186646,
          35.03461095454546
        ]
      },
      "properties": {
        "leisure": "garden",
        "source": "Bing, 2007-12"
      }
    },
    {
      "type": "Feature",
      "geometry": {
        "type": "Point",
        "coordinates": [
          135.74214884,
          35.00949236
        ]
      },
      "properties": {
        "leisure": "garden"
      }
    },
    {
      "type": "Feature",
      "geometry": {
        "type": "Point",
        "coordinates": [
          135.74215338,
          35.009104480000005
        ]
      },
      "properties": {
        "leisure": "garden"
      }
    },
    {
      "type": "Feature",
      "geometry": {
        "type": "Point",
        "coordinates": [
          135.74212430000003,
          35.0092926
        ]
      },
      "properties": {
        "leisure": "garden"
      }
    },
    {
      "type": "Feature",
      "geometry": {
        "type": "Point",
        "coordinates": [
          135.76009064666667,
          35.02630081333333
        ]
      },
      "properties": {
        "leisure": "garden",
        "natural": "wood",
        "source": "Bing, 2007-12"
      }
    },
    {
      "type": "Feature",
      "geometry": {
        "type": "Point",
        "coordinates": [
          135.76767849230768,
          35.00501478076924
        ]
      },
      "properties": {
        "leisure": "park",
        "name:en": "Shinkyogoku"
      }
    },
    {
      "type": "Feature",
      "geometry": {
        "type": "Point",
        "coordinates": [
          135.74308891666666,
          34.99819310555556
        ]
      },
      "properties": {
        "leisure": "park",
        "name": "光徳公園",
        "name:en": "Kotoku Park",
        "name:ja": "光徳公園"
      }
    },
    {
      "type": "Feature",
      "geometry": {
        "type": "Point",
        "coordinates": [
          135.77077338333334,
          34.99153878333334
        ]
      },
      "properties": {
        "leisure": "park",
        "name": "耳塚公園"
      }
    },
    {
      "type": "Feature",
      "geometry": {
        "type": "Point",
        "coordinates": [
          135.74267875714287,
          35.07702027857144
        ]
      },
      "properties": {
        "leisure": "park",
        "name": "Hiragino_Undo_Koen",
        "name:ja": "Hiragino_Undo_Koen",
        "source": "Bing",
        "sport": "multi"
      }
    },
    {
      "type": "Feature",
      "geometry": {
        "type": "Point",
        "coordinates": [
          135.736837,
          35.047645075000005
        ]
      },
      "properties": {
        "leisure": "park",
        "name": "鷹峯児童公園",
        "source": "Bing; survey"
      }
    },
    {
      "type": "Feature",
      "geometry": {
        "type": "Point",
        "coordinates": [
          135.74502925000002,
          35.05779476666667
        ]
      },
      "properties": {
        "leisure": "park",
        "name": "西賀茂児童公園",
        "source": "Bing"
      }
    },
    {
      "type": "Feature",
      "geometry": {
        "type": "Point",
        "coordinates": [
          135.75223056000002,
          35.051666940000004
        ]
      },
      "properties": {
        "leisure": "park",
        "name": "上堀川公園",
        "source": "Bing"
      }
    },
    {
      "type": "Feature",
      "geometry": {
        "type": "Point",
        "coordinates": [
          135.74567982727274,
          35.05097317272727
        ]
      },
      "properties": {
        "leisure": "park",
        "name": "大門児童公園",
        "source": "Bing;survey"
      }
    },
    {
      "type": "Feature",
      "geometry": {
        "type": "Point",
        "coordinates": [
          135.77505523253015,
          35.053384948192765
        ]
      },
      "properties": {
        "leisure": "park",
        "name": "宝ヶ池運動公園",
        "source": "Bing"
      }
    },
    {
      "type": "Feature",
      "geometry": {
        "type": "Point",
        "coordinates": [
          135.7450751857143,
          35.06305748571429
        ]
      },
      "properties": {
        "leisure": "park",
        "name": "水垣児童公園",
        "source": "Bing; survey"
      }
    },
    {
      "type": "Feature",
      "geometry": {
        "type": "Point",
        "coordinates": [
          135.73718337999998,
          35.04187476
        ]
      },
      "properties": {
        "leisure": "park",
        "name": "楽只児童公園",
        "source": "Bing; survey"
      }
    },
    {
      "type": "Feature",
      "geometry": {
        "type": "Point",
        "coordinates": [
          135.74399494444444,
          35.066023266666676
        ]
      },
      "properties": {
        "leisure": "park",
        "name": "山ノ森公園",
        "source": "Bing; survey"
      }
    },
    {
      "type": "Feature",
      "geometry": {
        "type": "Point",
        "coordinates": [
          135.74051205,
          35.06638858
        ]
      },
      "properties": {
        "leisure": "park",
        "name": "川上公園",
        "source": "Bing; survey"
      }
    },
    {
      "type": "Feature",
      "geometry": {
        "type": "Point",
        "coordinates": [
          135.79182758000002,
          35.07945838
        ]
      },
      "properties": {
        "leisure": "park",
        "source": "Bing"
      }
    },
    {
      "type": "Feature",
      "geometry": {
        "type": "Point",
        "coordinates": [
          135.79622448571428,
          35.072693685714285
        ]
      },
      "properties": {
        "leisure": "park",
        "name": "花園東児童公園",
        "source": "Bing; survey"
      }
    },
    {
      "type": "Feature",
      "geometry": {
        "type": "Point",
        "coordinates": [
          135.78718125999998,
          35.08366742
        ]
      },
      "properties": {
        "leisure": "park",
        "name": "忠在地中公園",
        "source": "Bing; survey"
      }
    },
    {
      "type": "Feature",
      "geometry": {
        "type": "Point",
        "coordinates": [
          135.7856872,
          35.08558225714285
        ]
      },
      "properties": {
        "leisure": "park",
        "name": "中在地北公園",
        "source": "Bing; survey"
      }
    },
    {
      "type": "Feature",
      "geometry": {
        "type": "Point",
        "coordinates": [
          135.76180994444445,
          35.05232853333334
        ]
      },
      "properties": {
        "leisure": "park",
        "name": "糠田児童公園",
        "source": "Bing; survey"
      }
    },
    {
      "type": "Feature",
      "geometry": {
        "type": "Point",
        "coordinates": [
          135.76167767777778,
          35.055254044444446
        ]
      },
      "properties": {
        "leisure": "park",
        "name": "穂根束児童公園",
        "source": "Bing; survey"
      }
    },
    {
      "type": "Feature",
      "geometry": {
        "type": "Point",
        "coordinates": [
          135.76145298333336,
          35.05832101666666
        ]
      },
      "properties": {
        "leisure": "park",
        "name": "岡本口公園",
        "source": "survey"
      }
    },
    {
      "type": "Feature",
      "geometry": {
        "type": "Point",
        "coordinates": [
          135.74028579999998,
          35.05974188888889
        ]
      },
      "properties": {
        "leisure": "park",
        "name": "鎮守庵公園",
        "source": "Bing; survey"
      }
    },
    {
      "type": "Feature",
      "geometry": {
        "type": "Point",
        "coordinates": [
          135.74138424444445,
          35.062970511111104
        ]
      },
      "properties": {
        "leisure": "park",
        "name": "今原公園",
        "source": "Bing; survey"
      }
    },
    {
      "type": "Feature",
      "geometry": {
        "type": "Point",
        "coordinates": [
          135.76519184285715,
          35.05287242857143
        ]
      },
      "properties": {
        "leisure": "park",
        "name": "西松本公園",
        "source": "Bing; survey"
      }
    },
    {
      "type": "Feature",
      "geometry": {
        "type": "Point",
        "coordinates": [
          135.73630062,
          35.05430098
        ]
      },
      "properties": {
        "leisure": "park",
        "name": "釈迦谷児童公園",
        "source": "Bing; survey"
      }
    },
    {
      "type": "Feature",
      "geometry": {
        "type": "Point",
        "coordinates": [
          135.74325855454546,
          35.05341231818182
        ]
      },
      "properties": {
        "leisure": "park",
        "name": "大宮交通公園",
        "source": "Bing;survey",
        "website": "https://omiya-trafficpark.com/",
        "wikidata": "Q11434397"
      }
    },
    {
      "type": "Feature",
      "geometry": {
        "type": "Point",
        "coordinates": [
          135.74809265000005,
          35.05983903
        ]
      },
      "properties": {
        "leisure": "park",
        "name": "鹿ノ下公園",
        "source": "Bing; survey"
      }
    },
    {
      "type": "Feature",
      "geometry": {
        "type": "Point",
        "coordinates": [
          135.79097406,
          35.0471144
        ]
      },
      "properties": {
        "leisure": "park",
        "name": "一乗寺ひいらぎ公園",
        "source": "Bing"
      }
    },
    {
      "type": "Feature",
      "geometry": {
        "type": "Point",
        "coordinates": [
          135.73475106666666,
          35.054267700000004
        ]
      },
      "properties": {
        "leisure": "park",
        "name": "北東児童公園",
        "source": "Bing; survey"
      }
    },
    {
      "type": "Feature",
      "geometry": {
        "type": "Point",
        "coordinates": [
          135.7577323,
          35.05550952
        ]
      },
      "properties": {
        "leisure": "park",
        "name": "鳥帽子児童公園",
        "source": "Bing; survey"
      }
    },
    {
      "type": "Feature",
      "geometry": {
        "type": "Point",
        "coordinates": [
          135.76509798,
          35.055986159999996
        ]
      },
      "properties": {
        "leisure": "park",
        "name": "松田公園",
        "source": "Bing; survey"
      }
    },
    {
      "type": "Feature",
      "geometry": {
        "type": "Point",
        "coordinates": [
          135.7689409222222,
          35.04917264444444
        ]
      },
      "properties": {
        "leisure": "park",
        "name": "萩児童公園",
        "source": "Bing"
      }
    },
    {
      "type": "Feature",
      "geometry": {
        "type": "Point",
        "coordinates": [
          135.75360992,
          35.044521440000004
        ]
      },
      "properties": {
        "leisure": "park",
        "name": "紫野柳公園",
        "source": "Bing"
      }
    },
    {
      "type": "Feature",
      "geometry": {
        "type": "Point",
        "coordinates": [
          135.7569028166667,
          35.03960213333333
        ]
      },
      "properties": {
        "leisure": "park",
        "name": "紫明せせらぎ第五公園",
        "source": "Bing; survey"
      }
    },
    {
      "type": "Feature",
      "geometry": {
        "type": "Point",
        "coordinates": [
          135.75874886999998,
          35.03995842
        ]
      },
      "properties": {
        "leisure": "park",
        "name": "紫明せせらぎ第四公園",
        "source": "Bing;survey"
      }
    },
    {
      "type": "Feature",
      "geometry": {
        "type": "Point",
        "coordinates": [
          135.75583816190473,
          35.03901094285714
        ]
      },
      "properties": {
        "leisure": "park",
        "name": "紫明せせらぎ第六公園",
        "source": "Bing; survey"
      }
    },
    {
      "type": "Feature",
      "geometry": {
        "type": "Point",
        "coordinates": [
          135.75783869090907,
          35.03987954545454
        ]
      },
      "properties": {
        "leisure": "park"
      }
    },
    {
      "type": "Feature",
      "geometry": {
        "type": "Point",
        "coordinates": [
          135.74373312857142,
          34.956976899999994
        ]
      },
      "properties": {
        "leisure": "park"
      }
    },
    {
      "type": "Feature",
      "geometry": {
        "type": "Point",
        "coordinates": [
          135.76086851666665,
          35.04065251666667
        ]
      },
      "properties": {
        "leisure": "park"
      }
    },
    {
      "type": "Feature",
      "geometry": {
        "type": "Point",
        "coordinates": [
          135.7598346727273,
          35.040122881818185
        ]
      },
      "properties": {
        "leisure": "park",
        "name": "紫明せせらぎ第三公園",
        "source": "Bing; survey"
      }
    },
    {
      "type": "Feature",
      "geometry": {
        "type": "Point",
        "coordinates": [
          135.76223107142857,
          35.0416503
        ]
      },
      "properties": {
        "leisure": "park",
        "name": "紫明せせらぎ第一公園"
      }
    },
    {
      "type": "Feature",
      "geometry": {
        "type": "Point",
        "coordinates": [
          135.76153637647056,
          35.04127901764706
        ]
      },
      "properties": {
        "leisure": "park",
        "name": "紫明せせらぎ第二公園",
        "source": "Bing; survey"
      }
    },
    {
      "type": "Feature",
      "geometry": {
        "type": "Point",
        "coordinates": [
          135.77401745,
          35.050009062499996
        ]
      },
      "properties": {
        "leisure": "park",
        "name": "松賀茂児童公園",
        "source": "Bing; survey"
      }
    },
    {
      "type": "Feature",
      "geometry": {
        "type": "Point",
        "coordinates": [
          135.7573408181818,
          35.0367909
        ]
      },
      "properties": {
        "leisure": "park",
        "source": "Bing"
      }
    },
    {
      "type": "Feature",
      "geometry": {
        "type": "Point",
        "coordinates": [
          135.7134518,
          34.99840237777777
        ]
      },
      "properties": {
        "leisure": "park",
        "source": "Bing"
      }
    },
    {
      "type": "Feature",
      "geometry": {
        "type": "Point",
        "coordinates": [
          135.72753097999998,
          35.002013840000004
        ]
      },
      "properties": {
        "leisure": "park",
        "source": "Bing"
      }
    },
    {
      "type": "Feature",
      "geometry": {
        "type": "Point",
        "coordinates": [
          135.77416815,
          35.04247277499999
        ]
      },
      "properties": {
        "leisure": "park",
        "name": "下鴨森ヶ前公園",
        "source": "Bing"
      }
    },
    {
      "type": "Feature",
      "geometry": {
        "type": "Point",
        "coordinates": [
          135.78359324,
          35.04199926
        ]
      },
      "properties": {
        "leisure": "park",
        "name": "地蔵本児童公園"
      }
    },
    {
      "type": "Feature",
      "geometry": {
        "type": "Point",
        "coordinates": [
          135.74131434285715,
          34.93315651428572
        ]
      },
      "properties": {
        "leisure": "park",
        "name": "円面田児童公園",
        "source": "Bing; survey"
      }
    },
    {
      "type": "Feature",
      "geometry": {
        "type": "Point",
        "coordinates": [
          135.7324488590909,
          34.9589503
        ]
      },
      "properties": {
        "leisure": "park",
        "name": "上関ノ内児童公園",
        "source": "survey"
      }
    },
    {
      "type": "Feature",
      "geometry": {
        "type": "Point",
        "coordinates": [
          135.7847356375,
          35.0365014
        ]
      },
      "properties": {
        "leisure": "park",
        "name": "高原児童公園",
        "source": "Bing",
        "start_date": "1938"
      }
    },
    {
      "type": "Feature",
      "geometry": {
        "type": "Point",
        "coordinates": [
          135.75460400714286,
          35.03177909285714
        ]
      },
      "properties": {
        "leisure": "park",
        "name": "小川児童公園",
        "source": "Bing; survey"
      }
    },
    {
      "type": "Feature",
      "geometry": {
        "type": "Point",
        "coordinates": [
          135.71439856976747,
          34.99413654418605
        ]
      },
      "properties": {
        "leisure": "park",
        "name": "西京極総合運動公園",
        "name:en": "Nishikyogoku Athletic Park",
        "source": "Bing",
        "wikidata": "Q11375127"
      }
    },
    {
      "type": "Feature",
      "geometry": {
        "type": "Point",
        "coordinates": [
          135.76759402500002,
          35.042878225
        ]
      },
      "properties": {
        "leisure": "park",
        "name": "中川原公園",
        "source": "Bing"
      }
    },
    {
      "type": "Feature",
      "geometry": {
        "type": "Point",
        "coordinates": [
          135.80966028181817,
          34.95205222727272
        ]
      },
      "properties": {
        "leisure": "park",
        "name": "折戸公園",
        "name:en": "Orito Park",
        "source": "Bing"
      }
    },
    {
      "type": "Feature",
      "geometry": {
        "type": "Point",
        "coordinates": [
          135.74543640800005,
          34.98726356
        ]
      },
      "properties": {
        "addr:city": "京都市",
        "addr:postcode": "600-8841",
        "addr:province": "京都府",
        "addr:quarter": "観喜寺町",
        "addr:suburb": "下京区",
        "architect": "空間創研",
        "architect:wikidata": "Q11597556",
        "contact:instagram": "kyoto_umekojipark",
        "contact:tripadvisor": "4071228",
        "contact:website": "http://www.kyoto-ga.jp/umekouji/",
        "leisure": "park",
        "name": "梅小路公園",
        "name:en": "Umekoji Park",
        "name:fr": "Parc d'Umekōji",
        "name:ja-Hira": "うめこうじこうえん",
        "name:ja-Latn": "Umekōji-kōen",
        "name:ko": "우메코지 공원",
        "name:zh": "梅小路公园",
        "source": "Bing",
        "start_date": "1995-04-29",
        "wikidata": "Q11538444",
        "wikimedia_commons": "Category:Umekoji Park",
        "wikipedia": "ja:梅小路公園"
      }
    },
    {
      "type": "Feature",
      "geometry": {
        "type": "Point",
        "coordinates": [
          135.72841991666667,
          35.03160555
        ]
      },
      "properties": {
        "leisure": "park",
        "name": "小松原児童公園",
        "source": "Bing, 2007-11"
      }
    },
    {
      "type": "Feature",
      "geometry": {
        "type": "Point",
        "coordinates": [
          135.74886926764708,
          35.062300311764695
        ]
      },
      "properties": {
        "leisure": "park",
        "name": "鴨川公園",
        "source": "Bing; survey"
      }
    },
    {
      "type": "Feature",
      "geometry": {
        "type": "Point",
        "coordinates": [
          135.74921955714288,
          35.05073795714286
        ]
      },
      "properties": {
        "leisure": "park",
        "name": "みどりちょうこうえん",
        "name:ja": "みどりちょうこうえん",
        "source": "Bing; survey"
      }
    },
    {
      "type": "Feature",
      "geometry": {
        "type": "Point",
        "coordinates": [
          135.7332936,
          35.05386798333334
        ]
      },
      "properties": {
        "leisure": "park",
        "name": "鷹峯第二公園",
        "source": "Bing; survey"
      }
    },
    {
      "type": "Feature",
      "geometry": {
        "type": "Point",
        "coordinates": [
          135.74013005555557,
          35.01219501111111
        ]
      },
      "properties": {
        "leisure": "park",
        "name": "星池公園",
        "source": "Bing; survey"
      }
    },
    {
      "type": "Feature",
      "geometry": {
        "type": "Point",
        "coordinates": [
          135.73229506034485,
          35.05116226206897
        ]
      },
      "properties": {
        "leisure": "garden",
        "name": "しょうざん庭園"
      }
    },
    {
      "type": "Feature",
      "geometry": {
        "type": "Point",
        "coordinates": [
          135.73924684,
          35.007055
        ]
      },
      "properties": {
        "leisure": "park",
        "source": "Bing"
      }
    },
    {
      "type": "Feature",
      "geometry": {
        "type": "Point",
        "coordinates": [
          135.7448320888889,
          35.00969017777777
        ]
      },
      "properties": {
        "leisure": "park",
        "source": "Bing"
      }
    },
    {
      "type": "Feature",
      "geometry": {
        "type": "Point",
        "coordinates": [
          135.7327321076923,
          34.995781584615386
        ]
      },
      "properties": {
        "access": "customers",
        "amenity": "parking",
        "fee": "no",
        "leisure": "park"
      }
    },
    {
      "type": "Feature",
      "geometry": {
        "type": "Point",
        "coordinates": [
          135.73129033749998,
          34.990849700000005
        ]
      },
      "properties": {
        "leisure": "park",
        "source": "Bing"
      }
    },
    {
      "type": "Feature",
      "geometry": {
        "type": "Point",
        "coordinates": [
          135.7246504,
          34.99874188571429
        ]
      },
      "properties": {
        "leisure": "park",
        "name": "西院清水公園",
        "source": "Bing"
      }
    },
    {
      "type": "Feature",
      "geometry": {
        "type": "Point",
        "coordinates": [
          135.785581775,
          35.0449183125
        ]
      },
      "properties": {
        "leisure": "park",
        "name": "高槻児童公園",
        "source": "Bing"
      }
    },
    {
      "type": "Feature",
      "geometry": {
        "type": "Point",
        "coordinates": [
          135.78286747777778,
          35.04452652222222
        ]
      },
      "properties": {
        "leisure": "park",
        "name": "玉岡児童公園",
        "source": "Bing"
      }
    },
    {
      "type": "Feature",
      "geometry": {
        "type": "Point",
        "coordinates": [
          135.78736696923076,
          35.07516084615385
        ]
      },
      "properties": {
        "leisure": "park",
        "name": "忠在地公園",
        "source": "Bing; survey"
      }
    },
    {
      "type": "Feature",
      "geometry": {
        "type": "Point",
        "coordinates": [
          135.78790314,
          35.069507506666675
        ]
      },
      "properties": {
        "leisure": "park",
        "name": "岩倉東公園",
        "source": "Bing; survey"
      }
    },
    {
      "type": "Feature",
      "geometry": {
        "type": "Point",
        "coordinates": [
          135.78351305555555,
          35.06671323333333
        ]
      },
      "properties": {
        "leisure": "park",
        "name": "南四ノ坪公園",
        "source": "Bing; survey"
      }
    },
    {
      "type": "Feature",
      "geometry": {
        "type": "Point",
        "coordinates": [
          135.7886088888889,
          35.062030811111114
        ]
      },
      "properties": {
        "leisure": "park",
        "name": "鷺公園",
        "source": "Bing; survey"
      }
    },
    {
      "type": "Feature",
      "geometry": {
        "type": "Point",
        "coordinates": [
          135.77887316999997,
          35.0680522
        ]
      },
      "properties": {
        "leisure": "park",
        "name": "岩倉南公園",
        "source": "Bing; survey"
      }
    },
    {
      "type": "Feature",
      "geometry": {
        "type": "Point",
        "coordinates": [
          135.7389294277778,
          35.05048947777777
        ]
      },
      "properties": {
        "leisure": "park",
        "name": "大宮西野山児童公園",
        "source": "Bing; survey"
      }
    },
    {
      "type": "Feature",
      "geometry": {
        "type": "Point",
        "coordinates": [
          135.74392092857144,
          35.00534135714286
        ]
      },
      "properties": {
        "leisure": "park",
        "name": "錦坊城児童公園",
        "source": "Bing"
      }
    },
    {
      "type": "Feature",
      "geometry": {
        "type": "Point",
        "coordinates": [
          135.74106371666667,
          35.070799908333335
        ]
      },
      "properties": {
        "leisure": "park",
        "name": "蟹ヶ坂児童公園",
        "name:en": "Kanigasaka Jidou Kouen",
        "source": "Bing;survey"
      }
    },
    {
      "type": "Feature",
      "geometry": {
        "type": "Point",
        "coordinates": [
          135.74107507,
          35.045560019999996
        ]
      },
      "properties": {
        "leisure": "park",
        "name": "今宮児童公園",
        "source": "Bing; survey"
      }
    },
    {
      "type": "Feature",
      "geometry": {
        "type": "Point",
        "coordinates": [
          135.7505326,
          34.97766910000001
        ]
      },
      "properties": {
        "leisure": "park",
        "source": "Bing"
      }
    },
    {
      "type": "Feature",
      "geometry": {
        "type": "Point",
        "coordinates": [
          135.75450387777778,
          34.981430233333334
        ]
      },
      "properties": {
        "leisure": "park",
        "name": "春日公園",
        "source": "Bing"
      }
    },
    {
      "type": "Feature",
      "geometry": {
        "type": "Point",
        "coordinates": [
          135.75821036666667,
          35.05249314
        ]
      },
      "properties": {
        "leisure": "park",
        "name": "菖蒲園公園",
        "source": "Bing; survey"
      }
    },
    {
      "type": "Feature",
      "geometry": {
        "type": "Point",
        "coordinates": [
          135.77207757499997,
          35.05468781874999
        ]
      },
      "properties": {
        "leisure": "park",
        "name": "茶の木原公園",
        "source": "Bing; survey"
      }
    },
    {
      "type": "Feature",
      "geometry": {
        "type": "Point",
        "coordinates": [
          135.76715312857144,
          35.05620655714286
        ]
      },
      "properties": {
        "access": "customers",
        "amenity": "parking",
        "fee": "no",
        "leisure": "park",
        "source": "Bing"
      }
    },
    {
      "type": "Feature",
      "geometry": {
        "type": "Point",
        "coordinates": [
          135.78995457142858,
          35.03871307142857
        ]
      },
      "properties": {
        "leisure": "park",
        "name": "塚本児童公園",
        "source": "Bing"
      }
    },
    {
      "type": "Feature",
      "geometry": {
        "type": "Point",
        "coordinates": [
          135.76819952500003,
          35.0569058875
        ]
      },
      "properties": {
        "leisure": "park",
        "name": "深泥池児童公園",
        "source": "Bing; survey"
      }
    },
    {
      "type": "Feature",
      "geometry": {
        "type": "Point",
        "coordinates": [
          135.73907403333334,
          35.04222216111111
        ]
      },
      "properties": {
        "leisure": "park",
        "name": "楽只東児童公園",
        "source": "survey"
      }
    },
    {
      "type": "Feature",
      "geometry": {
        "type": "Point",
        "coordinates": [
          135.72189096666668,
          35.001679422222225
        ]
      },
      "properties": {
        "leisure": "park",
        "source": "Bing; survey"
      }
    },
    {
      "type": "Feature",
      "geometry": {
        "type": "Point",
        "coordinates": [
          135.75240236666664,
          35.03896845
        ]
      },
      "properties": {
        "leisure": "park",
        "name": "紫野宮西公園",
        "source": "Bing;GSImaps/std"
      }
    },
    {
      "type": "Feature",
      "geometry": {
        "type": "Point",
        "coordinates": [
          135.78157004285714,
          35.03876757142857
        ]
      },
      "properties": {
        "leisure": "park",
        "name": "東開児童公園",
        "source": "Bing;survey"
      }
    },
    {
      "type": "Feature",
      "geometry": {
        "type": "Point",
        "coordinates": [
          135.7764491111111,
          35.06485623333334
        ]
      },
      "properties": {
        "leisure": "park",
        "name": "岩倉池田児童公園",
        "source": "Bing; survey"
      }
    },
    {
      "type": "Feature",
      "geometry": {
        "type": "Point",
        "coordinates": [
          135.79257435714288,
          35.04089214285714
        ]
      },
      "properties": {
        "leisure": "park",
        "name": "野田児童公園",
        "source": "Bing"
      }
    },
    {
      "type": "Feature",
      "geometry": {
        "type": "Point",
        "coordinates": [
          135.788248,
          35.047857930000006
        ]
      },
      "properties": {
        "leisure": "park",
        "name": "閉川原公園",
        "source": "Bing"
      }
    },
    {
      "type": "Feature",
      "geometry": {
        "type": "Point",
        "coordinates": [
          135.73040974999998,
          35.008973860000005
        ]
      },
      "properties": {
        "leisure": "park",
        "source": "image;Bing,2007-12"
      }
    },
    {
      "type": "Feature",
      "geometry": {
        "type": "Point",
        "coordinates": [
          135.7847905,
          35.030469440000005
        ]
      },
      "properties": {
        "leisure": "garden",
        "source": "Bing"
      }
    },
    {
      "type": "Feature",
      "geometry": {
        "type": "Point",
        "coordinates": [
          135.67872244285712,
          35.0111354
        ]
      },
      "properties": {
        "leisure": "park",
        "name": "嵐山西一川公園",
        "name:ja": "嵐山西一川公園",
        "source": "image,Bing,2007-12"
      }
    },
    {
      "type": "Feature",
      "geometry": {
        "type": "Point",
        "coordinates": [
          135.68125948695652,
          35.010478160869575
        ]
      },
      "properties": {
        "garden:type": "community",
        "leisure": "garden",
        "source": "GSImaps/seamlessphoto;survey"
      }
    },
    {
      "type": "Feature",
      "geometry": {
        "type": "Point",
        "coordinates": [
          135.6842845285714,
          35.00890612857143
        ]
      },
      "properties": {
        "leisure": "park",
        "source": "image,Bing,2007-12"
      }
    },
    {
      "type": "Feature",
      "geometry": {
        "type": "Point",
        "coordinates": [
          135.7761469,
          35.02938446666667
        ]
      },
      "properties": {
        "leisure": "garden",
        "name": "京都大学 清風荘",
        "name:de": "Villa Seifuso (Universität Kyōto)",
        "name:en": "Kyoto University Seifuso Villa",
        "name:ja": "京都大学 清風荘",
        "source": "Bing"
      }
    },
    {
      "type": "Feature",
      "geometry": {
        "type": "Point",
        "coordinates": [
          135.7817845142857,
          35.027335071428574
        ]
      },
      "properties": {
        "leisure": "garden",
        "source": "Bing"
      }
    },
    {
      "type": "Feature",
      "geometry": {
        "type": "Point",
        "coordinates": [
          135.78042126000003,
          35.0282376
        ]
      },
      "properties": {
        "leisure": "garden",
        "source": "Bing"
      }
    },
    {
      "type": "Feature",
      "geometry": {
        "type": "Point",
        "coordinates": [
          135.81769001333333,
          34.990607919999995
        ]
      },
      "properties": {
        "leisure": "park"
      }
    },
    {
      "type": "Feature",
      "geometry": {
        "type": "Point",
        "coordinates": [
          135.81887915454544,
          34.99737894545454
        ]
      },
      "properties": {
        "leisure": "park",
        "name": "馬場ノ西児童公園"
      }
    },
    {
      "type": "Feature",
      "geometry": {
        "type": "Point",
        "coordinates": [
          135.75056771250001,
          35.015193375
        ]
      },
      "properties": {
        "leisure": "garden"
      }
    },
    {
      "type": "Feature",
      "geometry": {
        "type": "Point",
        "coordinates": [
          135.74847371666667,
          34.980458661111115
        ]
      },
      "properties": {
        "leisure": "park",
        "source": "Bing"
      }
    },
    {
      "type": "Feature",
      "geometry": {
        "type": "Point",
        "coordinates": [
          135.74869426,
          34.981547739999996
        ]
      },
      "properties": {
        "leisure": "garden"
      }
    },
    {
      "type": "Feature",
      "geometry": {
        "type": "Point",
        "coordinates": [
          135.73300229999998,
          35.01411281428572
        ]
      },
      "properties": {
        "leisure": "park",
        "source": "Bing"
      }
    },
    {
      "type": "Feature",
      "geometry": {
        "type": "Point",
        "coordinates": [
          135.72113972222223,
          34.980683911111115
        ]
      },
      "properties": {
        "leisure": "park",
        "source": "Bing"
      }
    },
    {
      "type": "Feature",
      "geometry": {
        "type": "Point",
        "coordinates": [
          135.72360345555555,
          34.982626
        ]
      },
      "properties": {
        "leisure": "park",
        "name": "宮の森公園",
        "source": "Bing"
      }
    },
    {
      "type": "Feature",
      "geometry": {
        "type": "Point",
        "coordinates": [
          135.71719694444445,
          34.99805596666667
        ]
      },
      "properties": {
        "leisure": "park",
        "name": "三反田児童公園",
        "source": "Bing"
      }
    },
    {
      "type": "Feature",
      "geometry": {
        "type": "Point",
        "coordinates": [
          135.73820208846155,
          34.98078948076923
        ]
      },
      "properties": {
        "contact:website": "https://www2.city.kyoto.lg.jp/somu/rekishi/fm/ishibumi/html/mi003.html",
        "fee": "no",
        "leisure": "park",
        "name": "唐橋西寺公園",
        "name:en": "Karahashi Saiji Park",
        "name:fr": "Parc Karahashi Temple de l'Ouest",
        "name:ja-Hira": "からはしさいじ こうえん",
        "name:ja-Latn": "Karahashi sai-ji kōen",
        "old_name": "西寺",
        "old_name:fr": "Temple de l'Ouest",
        "old_name:ja-Hira": "さいじ",
        "old_name:ja-Latn": "Sai-ji",
        "source": "Bing",
        "start_date": "1926",
        "wikidata": "Q135714",
        "wikimedia_commons": "Category:Sai-ji",
        "wikipedia": "ja:西寺"
      }
    },
    {
      "type": "Feature",
      "geometry": {
        "type": "Point",
        "coordinates": [
          135.73175406363637,
          34.9569554
        ]
      },
      "properties": {
        "leisure": "park",
        "source": "Bing"
      }
    },
    {
      "type": "Feature",
      "geometry": {
        "type": "Point",
        "coordinates": [
          135.74019133333334,
          34.95592435555555
        ]
      },
      "properties": {
        "leisure": "park",
        "source": "Bing"
      }
    },
    {
      "type": "Feature",
      "geometry": {
        "type": "Point",
        "coordinates": [
          135.75018796666666,
          34.95982218333334
        ]
      },
      "properties": {
        "leisure": "park",
        "name": "火打形公園",
        "source": "Bing; survey"
      }
    },
    {
      "type": "Feature",
      "geometry": {
        "type": "Point",
        "coordinates": [
          135.7358826125,
          34.97075074999999
        ]
      },
      "properties": {
        "leisure": "park",
        "source": "Bing"
      }
    },
    {
      "type": "Feature",
      "geometry": {
        "type": "Point",
        "coordinates": [
          135.72787863076923,
          34.97296913076923
        ]
      },
      "properties": {
        "leisure": "park",
        "source": "Bing"
      }
    },
    {
      "type": "Feature",
      "geometry": {
        "type": "Point",
        "coordinates": [
          135.7324392142857,
          34.97041744285714
        ]
      },
      "properties": {
        "leisure": "park",
        "source": "Bing"
      }
    },
    {
      "type": "Feature",
      "geometry": {
        "type": "Point",
        "coordinates": [
          135.7249189,
          34.9811178
        ]
      },
      "properties": {
        "leisure": "park",
        "source": "Bing"
      }
    },
    {
      "type": "Feature",
      "geometry": {
        "type": "Point",
        "coordinates": [
          135.73155876,
          34.97646922
        ]
      },
      "properties": {
        "leisure": "park",
        "source": "Bing"
      }
    },
    {
      "type": "Feature",
      "geometry": {
        "type": "Point",
        "coordinates": [
          135.7270797333333,
          34.9760326
        ]
      },
      "properties": {
        "leisure": "park",
        "source": "Bing"
      }
    },
    {
      "type": "Feature",
      "geometry": {
        "type": "Point",
        "coordinates": [
          135.73925892857142,
          34.976069814285715
        ]
      },
      "properties": {
        "addr:province": "京都府",
        "addr:suburb": "南区",
        "leisure": "park",
        "name": "琵琶塚公園",
        "name:en": "Biwa Tsuka Koen (Park)",
        "opening_hours": "24/7",
        "operator": "Kyoto city",
        "source": "Bing"
      }
    },
    {
      "type": "Feature",
      "geometry": {
        "type": "Point",
        "coordinates": [
          135.73153998749999,
          34.973020162500006
        ]
      },
      "properties": {
        "leisure": "park",
        "source": "Bing"
      }
    },
    {
      "type": "Feature",
      "geometry": {
        "type": "Point",
        "coordinates": [
          135.73424557777778,
          34.972571811111116
        ]
      },
      "properties": {
        "leisure": "park",
        "name": "西政所児童公園",
        "source": "Bing"
      }
    },
    {
      "type": "Feature",
      "geometry": {
        "type": "Point",
        "coordinates": [
          135.7737701125,
          35.0451259875
        ]
      },
      "properties": {
        "leisure": "park",
        "name": "あおい公園",
        "source": "Bing"
      }
    },
    {
      "type": "Feature",
      "geometry": {
        "type": "Point",
        "coordinates": [
          135.74660404285714,
          34.985015399999995
        ]
      },
      "properties": {
        "leisure": "park",
        "name": "八条児童公園",
        "source": "Bing"
      }
    },
    {
      "type": "Feature",
      "geometry": {
        "type": "Point",
        "coordinates": [
          135.73714811428573,
          34.98699001428571
        ]
      },
      "properties": {
        "leisure": "park",
        "name": "久保公園",
        "name:en": "Kubo Park",
        "source": "Bing"
      }
    },
    {
      "type": "Feature",
      "geometry": {
        "type": "Point",
        "coordinates": [
          135.74315097692306,
          34.99170745384616
        ]
      },
      "properties": {
        "leisure": "park",
        "source": "Bing"
      }
    },
    {
      "type": "Feature",
      "geometry": {
        "type": "Point",
        "coordinates": [
          135.7873216428571,
          35.042807242857144
        ]
      },
      "properties": {
        "leisure": "park",
        "name": "一乗寺公園",
        "source": "Bing"
      }
    },
    {
      "type": "Feature",
      "geometry": {
        "type": "Point",
        "coordinates": [
          135.79084732222225,
          35.043071366666666
        ]
      },
      "properties": {
        "leisure": "park",
        "name": "辻児童公園",
        "source": "Bing"
      }
    },
    {
      "type": "Feature",
      "geometry": {
        "type": "Point",
        "coordinates": [
          135.72336942,
          34.97839764
        ]
      },
      "properties": {
        "leisure": "park",
        "source": "Bing"
      }
    },
    {
      "type": "Feature",
      "geometry": {
        "type": "Point",
        "coordinates": [
          135.73110590000002,
          34.9814267375
        ]
      },
      "properties": {
        "leisure": "park",
        "source": "Bing"
      }
    },
    {
      "type": "Feature",
      "geometry": {
        "type": "Point",
        "coordinates": [
          135.7233435,
          34.994006614285716
        ]
      },
      "properties": {
        "leisure": "park",
        "source": "Bing"
      }
    },
    {
      "type": "Feature",
      "geometry": {
        "type": "Point",
        "coordinates": [
          135.74799898333336,
          34.97700306666667
        ]
      },
      "properties": {
        "leisure": "park",
        "source": "Bing"
      }
    },
    {
      "type": "Feature",
      "geometry": {
        "type": "Point",
        "coordinates": [
          135.74756145714287,
          34.977583442857146
        ]
      },
      "properties": {
        "leisure": "park",
        "source": "Bing"
      }
    },
    {
      "type": "Feature",
      "geometry": {
        "type": "Point",
        "coordinates": [
          135.751026075,
          34.9745679125
        ]
      },
      "properties": {
        "leisure": "park",
        "source": "Bing"
      }
    },
    {
      "type": "Feature",
      "geometry": {
        "type": "Point",
        "coordinates": [
          135.74543176666666,
          35.004298866666666
        ]
      },
      "properties": {
        "leisure": "park",
        "name": "京都市坊城児童公園",
        "source": "survey"
      }
    },
    {
      "type": "Feature",
      "geometry": {
        "type": "Point",
        "coordinates": [
          135.78459334285714,
          35.083621900000004
        ]
      },
      "properties": {
        "leisure": "park",
        "name": "中在地南公園",
        "source": "Bing; survey"
      }
    },
    {
      "type": "Feature",
      "geometry": {
        "type": "Point",
        "coordinates": [
          135.766524896,
          34.958201243999994
        ]
      },
      "properties": {
        "leisure": "park",
        "name": "深草東児童公園",
        "name:ja": "深草東児童公園",
        "name:ja-Hira": "ふかくさひがしじどうこうえん",
        "name:ja-Latn": "Fukakusa higashi jidōkōen",
        "source": "Bing"
      }
    },
    {
      "type": "Feature",
      "geometry": {
        "type": "Point",
        "coordinates": [
          135.76315032,
          34.958803780000004
        ]
      },
      "properties": {
        "leisure": "park",
        "name": "深草西公園",
        "source": "Bing"
      }
    },
    {
      "type": "Feature",
      "geometry": {
        "type": "Point",
        "coordinates": [
          135.7632080857143,
          34.96152336428571
        ]
      },
      "properties": {
        "leisure": "park",
        "name": "砂川西公園",
        "source": "Bing"
      }
    },
    {
      "type": "Feature",
      "geometry": {
        "type": "Point",
        "coordinates": [
          135.7650955111111,
          34.959970322222226
        ]
      },
      "properties": {
        "leisure": "park",
        "name": "JCL深草中公園",
        "source": "Bing"
      }
    },
    {
      "type": "Feature",
      "geometry": {
        "type": "Point",
        "coordinates": [
          135.71648466666667,
          35.044391275
        ]
      },
      "properties": {
        "leisure": "park",
        "name": "原谷中央公園",
        "source": "survey"
      }
    },
    {
      "type": "Feature",
      "geometry": {
        "type": "Point",
        "coordinates": [
          135.70341595714285,
          35.02078338571429
        ]
      },
      "properties": {
        "leisure": "park",
        "name": "常盤野児童公園",
        "source": "Bing; survey"
      }
    },
    {
      "type": "Feature",
      "geometry": {
        "type": "Point",
        "coordinates": [
          135.697978175,
          35.01825918749999
        ]
      },
      "properties": {
        "leisure": "park",
        "name": "太秦乾公園"
      }
    },
    {
      "type": "Feature",
      "geometry": {
        "type": "Point",
        "coordinates": [
          135.7245657,
          34.99038208333334
        ]
      },
      "properties": {
        "leisure": "park",
        "name": "南三反田児童公園",
        "source": "Bing; survey"
      }
    },
    {
      "type": "Feature",
      "geometry": {
        "type": "Point",
        "coordinates": [
          135.7504968285714,
          34.97086467142857
        ]
      },
      "properties": {
        "addr:city": "京都市",
        "addr:postcode": "601-8103",
        "addr:province": "京都府",
        "addr:quarter": "上鳥羽仏現寺町",
        "addr:suburb": "南区",
        "leisure": "park",
        "name": "上鳥羽公園",
        "source": "Bing"
      }
    },
    {
      "type": "Feature",
      "geometry": {
        "type": "Point",
        "coordinates": [
          135.76039854444446,
          34.950633555555555
        ]
      },
      "properties": {
        "leisure": "park",
        "name": "小久保児童公園",
        "source": "survey"
      }
    },
    {
      "type": "Feature",
      "geometry": {
        "type": "Point",
        "coordinates": [
          135.76378675,
          34.953279957142854
        ]
      },
      "properties": {
        "leisure": "park",
        "name": "七瀬川児童公園",
        "source": "Bing"
      }
    },
    {
      "type": "Feature",
      "geometry": {
        "type": "Point",
        "coordinates": [
          135.7386235125,
          35.0341864375
        ]
      },
      "properties": {
        "leisure": "park",
        "source": "Bing"
      }
    },
    {
      "type": "Feature",
      "geometry": {
        "type": "Point",
        "coordinates": [
          135.80646101304347,
          34.96396298695652
        ]
      },
      "properties": {
        "leisure": "park",
        "name": "泉玉公園"
      }
    },
    {
      "type": "Feature",
      "geometry": {
        "type": "Point",
        "coordinates": [
          135.8049786,
          34.96602295
        ]
      },
      "properties": {
        "leisure": "park",
        "name": "堂田児童公園",
        "name:ja_kana": "どうでんじどうこうえん",
        "source": "Bing"
      }
    },
    {
      "type": "Feature",
      "geometry": {
        "type": "Point",
        "coordinates": [
          135.77860617142858,
          35.04011944285715
        ]
      },
      "properties": {
        "leisure": "park",
        "name": "西開公園",
        "source": "survey"
      }
    },
    {
      "type": "Feature",
      "geometry": {
        "type": "Point",
        "coordinates": [
          135.7863401230769,
          35.084570476923076
        ]
      },
      "properties": {
        "leisure": "park",
        "name": "忠在地北公園",
        "source": "Bing; survey"
      }
    },
    {
      "type": "Feature",
      "geometry": {
        "type": "Point",
        "coordinates": [
          135.78903284285713,
          35.08296158571429
        ]
      },
      "properties": {
        "leisure": "park",
        "name": "石倉児童公園",
        "source": "Bing; survey"
      }
    },
    {
      "type": "Feature",
      "geometry": {
        "type": "Point",
        "coordinates": [
          135.78932534,
          35.08486282
        ]
      },
      "properties": {
        "leisure": "park",
        "source": "Bing; survey"
      }
    },
    {
      "type": "Feature",
      "geometry": {
        "type": "Point",
        "coordinates": [
          135.7897205,
          35.08601106666667
        ]
      },
      "properties": {
        "leisure": "park",
        "source": "Bing; survey"
      }
    },
    {
      "type": "Feature",
      "geometry": {
        "type": "Point",
        "coordinates": [
          135.78919545,
          35.0854489
        ]
      },
      "properties": {
        "leisure": "park",
        "source": "Bing; survey"
      }
    },
    {
      "type": "Feature",
      "geometry": {
        "type": "Point",
        "coordinates": [
          135.78595184,
          35.07209019
        ]
      },
      "properties": {
        "leisure": "park",
        "name": "下在地第二公園",
        "source": "Bing; survey"
      }
    },
    {
      "type": "Feature",
      "geometry": {
        "type": "Point",
        "coordinates": [
          135.77972706,
          35.0394289
        ]
      },
      "properties": {
        "leisure": "park",
        "source": "Bing; survey"
      }
    },
    {
      "type": "Feature",
      "geometry": {
        "type": "Point",
        "coordinates": [
          135.77511461666668,
          35.06669275
        ]
      },
      "properties": {
        "leisure": "park",
        "name": "東幡枝公園",
        "source": "Bing; survey"
      }
    },
    {
      "type": "Feature",
      "geometry": {
        "type": "Point",
        "coordinates": [
          135.76589957142855,
          35.09047714285715
        ]
      },
      "properties": {
        "leisure": "park",
        "name": "野中児童公園",
        "source": "Bing; survey"
      }
    },
    {
      "type": "Feature",
      "geometry": {
        "type": "Point",
        "coordinates": [
          135.73361648333332,
          35.00037571666667
        ]
      },
      "properties": {
        "leisure": "park",
        "source": "Bing"
      }
    },
    {
      "type": "Feature",
      "geometry": {
        "type": "Point",
        "coordinates": [
          135.73281708000002,
          35.00930848
        ]
      },
      "properties": {
        "leisure": "park",
        "name": "新建児童公園",
        "source": "Bing; survey"
      }
    },
    {
      "type": "Feature",
      "geometry": {
        "type": "Point",
        "coordinates": [
          135.75863252857144,
          34.97717682857144
        ]
      },
      "properties": {
        "leisure": "park",
        "name": "明田児童公園",
        "source": "Bing"
      }
    },
    {
      "type": "Feature",
      "geometry": {
        "type": "Point",
        "coordinates": [
          135.73341922,
          35.01945282
        ]
      },
      "properties": {
        "leisure": "park",
        "source": "Bing"
      }
    },
    {
      "type": "Feature",
      "geometry": {
        "type": "Point",
        "coordinates": [
          135.75228803157896,
          35.03624042631579
        ]
      },
      "properties": {
        "leisure": "park",
        "name": "扇町(天神)公園",
        "source": "Bing; survey"
      }
    },
    {
      "type": "Feature",
      "geometry": {
        "type": "Point",
        "coordinates": [
          135.73853117142855,
          35.0312435
        ]
      },
      "properties": {
        "leisure": "park",
        "name": "翔鸞公園",
        "opening_hours": "24/7",
        "source": "Bing,2007-12; survey",
        "wheelchair": "yes"
      }
    },
    {
      "type": "Feature",
      "geometry": {
        "type": "Point",
        "coordinates": [
          135.79105076000002,
          35.0868396
        ]
      },
      "properties": {
        "leisure": "park",
        "source": "Bing"
      }
    },
    {
      "type": "Feature",
      "geometry": {
        "type": "Point",
        "coordinates": [
          135.78908384285714,
          35.0887967
        ]
      },
      "properties": {
        "leisure": "park",
        "source": "Bing"
      }
    },
    {
      "type": "Feature",
      "geometry": {
        "type": "Point",
        "coordinates": [
          135.78940323333333,
          35.070347000000005
        ]
      },
      "properties": {
        "leisure": "park",
        "name": "花園西児童公園",
        "source": "Bing; survey"
      }
    },
    {
      "type": "Feature",
      "geometry": {
        "type": "Point",
        "coordinates": [
          135.75988628571426,
          35.08590372857143
        ]
      },
      "properties": {
        "leisure": "park",
        "name": "静市第三公園",
        "source": "Bing; survey"
      }
    },
    {
      "type": "Feature",
      "geometry": {
        "type": "Point",
        "coordinates": [
          135.7567525681818,
          35.078193431818185
        ]
      },
      "properties": {
        "leisure": "park",
        "name": "ウエスト パーク エデン",
        "name:en": "West Park Eden",
        "source": "Bing; survey"
      }
    },
    {
      "type": "Feature",
      "geometry": {
        "type": "Point",
        "coordinates": [
          135.76230933333332,
          35.082481300000005
        ]
      },
      "properties": {
        "leisure": "park",
        "name": "静市児童公園",
        "source": "Bing; survey"
      }
    },
    {
      "type": "Feature",
      "geometry": {
        "type": "Point",
        "coordinates": [
          135.7679254,
          35.07280871111111
        ]
      },
      "properties": {
        "leisure": "park",
        "name": "南市原第四公園",
        "source": "Bing; survey"
      }
    },
    {
      "type": "Feature",
      "geometry": {
        "type": "Point",
        "coordinates": [
          135.760340725,
          35.0748939625
        ]
      },
      "properties": {
        "leisure": "park",
        "name": "西市原第二児童公園",
        "source": "Bing; survey"
      }
    },
    {
      "type": "Feature",
      "geometry": {
        "type": "Point",
        "coordinates": [
          135.76574723333331,
          35.07610801666667
        ]
      },
      "properties": {
        "leisure": "park",
        "source": "Bing"
      }
    },
    {
      "type": "Feature",
      "geometry": {
        "type": "Point",
        "coordinates": [
          135.7662334,
          35.079941500000004
        ]
      },
      "properties": {
        "leisure": "park",
        "name": "東市原公園",
        "source": "Bing; survey"
      }
    },
    {
      "type": "Feature",
      "geometry": {
        "type": "Point",
        "coordinates": [
          135.79009566666664,
          35.02406878888888
        ]
      },
      "properties": {
        "leisure": "park",
        "name": "馬場児童公園",
        "source": "Bing"
      }
    },
    {
      "type": "Feature",
      "geometry": {
        "type": "Point",
        "coordinates": [
          135.7921936090909,
          35.019146263636365
        ]
      },
      "properties": {
        "leisure": "park",
        "name": "宮の前児童公園",
        "source": "Bing; survey"
      }
    },
    {
      "type": "Feature",
      "geometry": {
        "type": "Point",
        "coordinates": [
          135.79319493636362,
          35.06246946363636
        ]
      },
      "properties": {
        "leisure": "park",
        "name": "鳥脇児童公園",
        "source": "Bing; survey"
      }
    },
    {
      "type": "Feature",
      "geometry": {
        "type": "Point",
        "coordinates": [
          135.7441237,
          34.94383151666667
        ]
      },
      "properties": {
        "leisure": "park",
        "name": "城ノ越公園",
        "source": "Bing"
      }
    },
    {
      "type": "Feature",
      "geometry": {
        "type": "Point",
        "coordinates": [
          135.74705444545455,
          35.02282893636364
        ]
      },
      "properties": {
        "leisure": "park",
        "name": "辰巳公園",
        "source": "Bing; survey"
      }
    },
    {
      "type": "Feature",
      "geometry": {
        "type": "Point",
        "coordinates": [
          135.74662381052633,
          35.027721457894735
        ]
      },
      "properties": {
        "leisure": "park",
        "name": "橘児童公園",
        "source": "Bing; survey"
      }
    },
    {
      "type": "Feature",
      "geometry": {
        "type": "Point",
        "coordinates": [
          135.74724948333332,
          35.01983283333333
        ]
      },
      "properties": {
        "leisure": "park",
        "name": "中村公園",
        "source": "bing"
      }
    },
    {
      "type": "Feature",
      "geometry": {
        "type": "Point",
        "coordinates": [
          135.74898517,
          35.03250193
        ]
      },
      "properties": {
        "leisure": "park",
        "name": "西陣児童公園",
        "source": "Bing"
      }
    },
    {
      "type": "Feature",
      "geometry": {
        "type": "Point",
        "coordinates": [
          135.74661276,
          35.03056625000001
        ]
      },
      "properties": {
        "leisure": "park",
        "name": "桜井公園",
        "source": "Bing; survey"
      }
    },
    {
      "type": "Feature",
      "geometry": {
        "type": "Point",
        "coordinates": [
          135.6836972407407,
          34.99227752592592
        ]
      },
      "properties": {
        "alt_name": "苔寺",
        "alt_name:en": "Kokedera Moss Temple",
        "alt_name:fr": "Temple de la mousse",
        "alt_name:ja-Latn": "Koke-dera",
        "alt_name:ja_kana": "こけでら",
        "alt_name:ru": "Кокэдэра",
        "amenity": "place_of_worship",
        "charge": "3000 JPY",
        "contact:website": "https://intosaihoji.com/en/booking/nichinichi",
        "denomination": "rinzai",
        "denomination:ja": "臨済宗",
        "fee": "yes",
        "heritage": "1",
        "heritage:operator": "whc",
        "historic": "heritage",
        "landuse": "religious",
        "leisure": "park",
        "name": "西芳寺",
        "name:en": "Saihō Temple",
        "name:fr": "Temple Saihō",
        "name:ja-Hira": "さいほうじ",
        "name:ja-Latn": "Saihō-ji",
        "name:ko": "사이호지",
        "name:ru": "Сайходзи",
        "name:zh": "西芳寺",
        "ref:whc": "688-011",
        "religion": "buddhist",
        "reservation": "only",
        "start_date": "1339",
        "whc:criteria": "(ii),(iv)",
        "whc:inscription_date": "1994",
        "wikidata": "Q1516753",
        "wikimedia_commons": "Category:Saihouji",
        "wikipedia": "ja:西芳寺"
      }
    },
    {
      "type": "Feature",
      "geometry": {
        "type": "Point",
        "coordinates": [
          135.7099232,
          34.996774875
        ]
      },
      "properties": {
        "leisure": "park",
        "name": "衣手児童公園",
        "source": "Bing"
      }
    },
    {
      "type": "Feature",
      "geometry": {
        "type": "Point",
        "coordinates": [
          135.70786547777777,
          34.999522
        ]
      },
      "properties": {
        "leisure": "park",
        "name": "堤下児童公園",
        "source": "Bing"
      }
    },
    {
      "type": "Feature",
      "geometry": {
        "type": "Point",
        "coordinates": [
          135.71207044444446,
          35.00116583333333
        ]
      },
      "properties": {
        "leisure": "park",
        "source": "Bing"
      }
    },
    {
      "type": "Feature",
      "geometry": {
        "type": "Point",
        "coordinates": [
          135.7292590142857,
          35.024372742857146
        ]
      },
      "properties": {
        "leisure": "park",
        "source": "Bing"
      }
    },
    {
      "type": "Feature",
      "geometry": {
        "type": "Point",
        "coordinates": [
          135.75697404,
          35.033574089999995
        ]
      },
      "properties": {
        "leisure": "park",
        "name": "新生さくら広場",
        "source": "survey"
      }
    },
    {
      "type": "Feature",
      "geometry": {
        "type": "Point",
        "coordinates": [
          135.74396886666668,
          34.937181466666665
        ]
      },
      "properties": {
        "leisure": "park",
        "source": "Bing"
      }
    },
    {
      "type": "Feature",
      "geometry": {
        "type": "Point",
        "coordinates": [
          135.73087640000003,
          34.9620884
        ]
      },
      "properties": {
        "leisure": "park",
        "source": "Bing"
      }
    },
    {
      "type": "Feature",
      "geometry": {
        "type": "Point",
        "coordinates": [
          135.73367926666666,
          34.961351666666665
        ]
      },
      "properties": {
        "leisure": "park",
        "source": "Bing"
      }
    },
    {
      "type": "Feature",
      "geometry": {
        "type": "Point",
        "coordinates": [
          135.73054070000003,
          34.96428711
        ]
      },
      "properties": {
        "leisure": "park",
        "source": "Bing"
      }
    },
    {
      "type": "Feature",
      "geometry": {
        "type": "Point",
        "coordinates": [
          135.78885371578943,
          34.99984653157895
        ]
      },
      "properties": {
        "leisure": "park",
        "name": "東山山頂公園",
        "name:en": "Higashiyama Mount Peak Park",
        "source": "Bing;survey",
        "wikidata": "Q98101174",
        "wikipedia": "ja:東山山頂公園"
      }
    },
    {
      "type": "Feature",
      "geometry": {
        "type": "Point",
        "coordinates": [
          135.81855315500002,
          34.968658635000004
        ]
      },
      "properties": {
        "leisure": "park",
        "name": "早稲ノ内児童公園",
        "source": "Bing",
        "source_1": "http://yamashinasan.com/facility/154.html"
      }
    },
    {
      "type": "Feature",
      "geometry": {
        "type": "Point",
        "coordinates": [
          135.81588870588234,
          34.96689781764705
        ]
      },
      "properties": {
        "leisure": "park",
        "name": "早稲ノ内児童公園",
        "source": "Bing"
      }
    },
    {
      "type": "Feature",
      "geometry": {
        "type": "Point",
        "coordinates": [
          135.80591259166667,
          34.975929483333324
        ]
      },
      "properties": {
        "leisure": "park",
        "name": "武田公園",
        "source": "Bing"
      }
    },
    {
      "type": "Feature",
      "geometry": {
        "type": "Point",
        "coordinates": [
          135.80762555999996,
          34.977771129999994
        ]
      },
      "properties": {
        "leisure": "park",
        "name": "みょうが池公園",
        "source": "Bing"
      }
    },
    {
      "type": "Feature",
      "geometry": {
        "type": "Point",
        "coordinates": [
          135.81722206,
          34.96108568
        ]
      },
      "properties": {
        "leisure": "park",
        "name": "小野小町公園",
        "source": "Bing"
      }
    },
    {
      "type": "Feature",
      "geometry": {
        "type": "Point",
        "coordinates": [
          135.8148613181818,
          34.95308838181818
        ]
      },
      "properties": {
        "leisure": "park",
        "name": "醍醐中山公園",
        "source": "Bing"
      }
    },
    {
      "type": "Feature",
      "geometry": {
        "type": "Point",
        "coordinates": [
          135.818064625,
          34.9582974125
        ]
      },
      "properties": {
        "leisure": "park",
        "name": "京道公園",
        "source": "Bing"
      }
    },
    {
      "type": "Feature",
      "geometry": {
        "type": "Point",
        "coordinates": [
          135.82264818571429,
          34.95941952857143
        ]
      },
      "properties": {
        "leisure": "park",
        "source": "Bing"
      }
    },
    {
      "type": "Feature",
      "geometry": {
        "type": "Point",
        "coordinates": [
          135.8240725285714,
          34.961751042857145
        ]
      },
      "properties": {
        "leisure": "park",
        "source": "Bing"
      }
    },
    {
      "type": "Feature",
      "geometry": {
        "type": "Point",
        "coordinates": [
          135.81944125714284,
          34.95556297142857
        ]
      },
      "properties": {
        "leisure": "park",
        "source": "Bing"
      }
    },
    {
      "type": "Feature",
      "geometry": {
        "type": "Point",
        "coordinates": [
          135.80840693333334,
          34.9461127
        ]
      },
      "properties": {
        "leisure": "park",
        "source": "Bing"
      }
    },
    {
      "type": "Feature",
      "geometry": {
        "type": "Point",
        "coordinates": [
          135.82039453333334,
          34.946806841666664
        ]
      },
      "properties": {
        "leisure": "park",
        "source": "Bing"
      }
    },
    {
      "type": "Feature",
      "geometry": {
        "type": "Point",
        "coordinates": [
          135.81417646,
          34.9387883
        ]
      },
      "properties": {
        "leisure": "park",
        "source": "Bing"
      }
    },
    {
      "type": "Feature",
      "geometry": {
        "type": "Point",
        "coordinates": [
          135.81875625,
          34.940351533333335
        ]
      },
      "properties": {
        "leisure": "park",
        "source": "Bing"
      }
    },
    {
      "type": "Feature",
      "geometry": {
        "type": "Point",
        "coordinates": [
          135.81666946666664,
          34.93689143333333
        ]
      },
      "properties": {
        "leisure": "park",
        "source": "Bing"
      }
    },
    {
      "type": "Feature",
      "geometry": {
        "type": "Point",
        "coordinates": [
          135.81394804285713,
          34.93302465714286
        ]
      },
      "properties": {
        "leisure": "park",
        "source": "Bing"
      }
    },
    {
      "type": "Feature",
      "geometry": {
        "type": "Point",
        "coordinates": [
          135.8119179,
          34.9412248
        ]
      },
      "properties": {
        "leisure": "park",
        "source": "Bing"
      }
    },
    {
      "type": "Feature",
      "geometry": {
        "type": "Point",
        "coordinates": [
          135.7867510857143,
          34.937835314285714
        ]
      },
      "properties": {
        "leisure": "park",
        "source": "Bing"
      }
    },
    {
      "type": "Feature",
      "geometry": {
        "type": "Point",
        "coordinates": [
          135.80178135714286,
          34.96892751428572
        ]
      },
      "properties": {
        "leisure": "park",
        "name": "中鳥井南児童公園",
        "name:ja_rm": "Chutoriiminamijido Park",
        "source": "Bing"
      }
    },
    {
      "type": "Feature",
      "geometry": {
        "type": "Point",
        "coordinates": [
          135.80106743846153,
          34.96767138461538
        ]
      },
      "properties": {
        "leisure": "park",
        "name": "柴山西児童公園",
        "name:ja_kana": "しばやましばやまにしじどう",
        "source": "Bing"
      }
    },
    {
      "type": "Feature",
      "geometry": {
        "type": "Point",
        "coordinates": [
          135.80582461333333,
          34.96929124
        ]
      },
      "properties": {
        "leisure": "park",
        "name": "西金ヶ崎公園",
        "source": "Bing"
      }
    },
    {
      "type": "Feature",
      "geometry": {
        "type": "Point",
        "coordinates": [
          135.80314801764706,
          34.96718914117647
        ]
      },
      "properties": {
        "leisure": "park",
        "name": "柴山公園",
        "name:ja_kana": "しばやまこうえん",
        "source": "Bing"
      }
    },
    {
      "type": "Feature",
      "geometry": {
        "type": "Point",
        "coordinates": [
          135.77007508000003,
          34.941006540000004
        ]
      },
      "properties": {
        "leisure": "park",
        "source": "Bing"
      }
    },
    {
      "type": "Feature",
      "geometry": {
        "type": "Point",
        "coordinates": [
          135.7803993166667,
          34.94423488333333
        ]
      },
      "properties": {
        "leisure": "park",
        "name": "万帖敷児童公園",
        "source": "Bing"
      }
    },
    {
      "type": "Feature",
      "geometry": {
        "type": "Point",
        "coordinates": [
          135.76607578333332,
          34.93641251666667
        ]
      },
      "properties": {
        "leisure": "park",
        "source": "Bing"
      }
    },
    {
      "type": "Feature",
      "geometry": {
        "type": "Point",
        "coordinates": [
          135.76944157,
          34.939589680000005
        ]
      },
      "properties": {
        "leisure": "park",
        "name": "福島児童公園",
        "source": "Bing"
      }
    },
    {
      "type": "Feature",
      "geometry": {
        "type": "Point",
        "coordinates": [
          135.75886865714287,
          34.928178814285715
        ]
      },
      "properties": {
        "leisure": "garden"
      }
    },
    {
      "type": "Feature",
      "geometry": {
        "type": "Point",
        "coordinates": [
          135.7596723,
          34.938092475
        ]
      },
      "properties": {
        "leisure": "park",
        "source": "Bing"
      }
    },
    {
      "type": "Feature",
      "geometry": {
        "type": "Point",
        "coordinates": [
          135.76045354000001,
          34.9371376
        ]
      },
      "properties": {
        "leisure": "park",
        "source": "Bing"
      }
    },
    {
      "type": "Feature",
      "geometry": {
        "type": "Point",
        "coordinates": [
          135.76556929999998,
          34.92951575714286
        ]
      },
      "properties": {
        "leisure": "park",
        "source": "Bing"
      }
    },
    {
      "type": "Feature",
      "geometry": {
        "type": "Point",
        "coordinates": [
          135.7606958,
          34.9432872888889
        ]
      },
      "properties": {
        "leisure": "park",
        "source": "Bing"
      }
    },
    {
      "type": "Feature",
      "geometry": {
        "type": "Point",
        "coordinates": [
          135.75558324000002,
          34.941822200000004
        ]
      },
      "properties": {
        "check_date": "2025-03-19",
        "leisure": "park",
        "name": "舞台町公園",
        "source": "Bing"
      }
    },
    {
      "type": "Feature",
      "geometry": {
        "type": "Point",
        "coordinates": [
          135.75486797500002,
          34.9424275875
        ]
      },
      "properties": {
        "leisure": "park",
        "source": "Bing"
      }
    },
    {
      "type": "Feature",
      "geometry": {
        "type": "Point",
        "coordinates": [
          135.76355640000003,
          34.94993828
        ]
      },
      "properties": {
        "leisure": "park",
        "source": "Bing"
      }
    },
    {
      "type": "Feature",
      "geometry": {
        "type": "Point",
        "coordinates": [
          135.76234485,
          34.94612752
        ]
      },
      "properties": {
        "barrier": "fence",
        "fence_type": "chain_link",
        "leisure": "park",
        "name": "柴田屋敷児童公園",
        "source": "Bing"
      }
    },
    {
      "type": "Feature",
      "geometry": {
        "type": "Point",
        "coordinates": [
          135.77936352857142,
          34.947287700000004
        ]
      },
      "properties": {
        "leisure": "park",
        "source": "Bing"
      }
    },
    {
      "type": "Feature",
      "geometry": {
        "type": "Point",
        "coordinates": [
          135.7674386,
          34.949992849999994
        ]
      },
      "properties": {
        "leisure": "park",
        "name": "北鍵屋町公園",
        "source": "Bing"
      }
    },
    {
      "type": "Feature",
      "geometry": {
        "type": "Point",
        "coordinates": [
          135.76338135999998,
          34.955524260000004
        ]
      },
      "properties": {
        "leisure": "park",
        "source": "Bing"
      }
    },
    {
      "type": "Feature",
      "geometry": {
        "type": "Point",
        "coordinates": [
          135.78172794285715,
          34.952542685714285
        ]
      },
      "properties": {
        "leisure": "park",
        "source": "Bing"
      }
    },
    {
      "type": "Feature",
      "geometry": {
        "type": "Point",
        "coordinates": [
          135.77448753809526,
          34.98552206666667
        ]
      },
      "properties": {
        "leisure": "park",
        "source": "Bing"
      }
    },
    {
      "type": "Feature",
      "geometry": {
        "type": "Point",
        "coordinates": [
          135.76877843333332,
          34.968014716666666
        ]
      },
      "properties": {
        "leisure": "park",
        "source": "Bing"
      }
    },
    {
      "type": "Feature",
      "geometry": {
        "type": "Point",
        "coordinates": [
          135.76744380000002,
          34.97004953333333
        ]
      },
      "properties": {
        "leisure": "park",
        "source": "Bing"
      }
    },
    {
      "type": "Feature",
      "geometry": {
        "type": "Point",
        "coordinates": [
          135.76975020625,
          34.96793386875
        ]
      },
      "properties": {
        "leisure": "park",
        "name": "稲荷公園",
        "name:en": "Inari Park",
        "source": "Bing"
      }
    },
    {
      "type": "Feature",
      "geometry": {
        "type": "Point",
        "coordinates": [
          135.76091791666667,
          34.97742835
        ]
      },
      "properties": {
        "leisure": "park",
        "name": "御霊公園",
        "source": "Bing"
      }
    },
    {
      "type": "Feature",
      "geometry": {
        "type": "Point",
        "coordinates": [
          135.76559754285714,
          34.982856285714284
        ]
      },
      "properties": {
        "leisure": "park",
        "name": "北岩本児童公園",
        "source": "Bing"
      }
    },
    {
      "type": "Feature",
      "geometry": {
        "type": "Point",
        "coordinates": [
          135.80690769411765,
          34.972647429411765
        ]
      },
      "properties": {
        "leisure": "park",
        "name": "打越公園",
        "source": "Bing"
      }
    },
    {
      "type": "Feature",
      "geometry": {
        "type": "Point",
        "coordinates": [
          135.69167058333332,
          35.001241750000005
        ]
      },
      "properties": {
        "leisure": "park",
        "name": "大縄児童公園",
        "source": "Bing; survey"
      }
    },
    {
      "type": "Feature",
      "geometry": {
        "type": "Point",
        "coordinates": [
          135.7246074083333,
          35.02210350833333
        ]
      },
      "properties": {
        "leisure": "park",
        "name": "艮北児童公園",
        "source": "Bing; survey"
      }
    },
    {
      "type": "Feature",
      "geometry": {
        "type": "Point",
        "coordinates": [
          135.72414554,
          35.02498498
        ]
      },
      "properties": {
        "leisure": "park",
        "name": "鷹司児童公園",
        "source": "Bing; survey"
      }
    },
    {
      "type": "Feature",
      "geometry": {
        "type": "Point",
        "coordinates": [
          135.7790966888889,
          35.031748566666664
        ]
      },
      "properties": {
        "leisure": "park",
        "name": "飛鳥井児童公園",
        "source": "Bing"
      }
    },
    {
      "type": "Feature",
      "geometry": {
        "type": "Point",
        "coordinates": [
          135.7301808,
          35.02051728333334
        ]
      },
      "properties": {
        "leisure": "park",
        "source": "Bing"
      }
    },
    {
      "type": "Feature",
      "geometry": {
        "type": "Point",
        "coordinates": [
          135.71593797619047,
          34.989718457142864
        ]
      },
      "properties": {
        "leisure": "park",
        "name": "京都アクアリーナ",
        "source": "Bing; survey"
      }
    },
    {
      "type": "Feature",
      "geometry": {
        "type": "Point",
        "coordinates": [
          135.71339804444446,
          34.9903346
        ]
      },
      "properties": {
        "leisure": "park",
        "name": "西京極児童公園",
        "source": "Bing; survey"
      }
    },
    {
      "type": "Feature",
      "geometry": {
        "type": "Point",
        "coordinates": [
          135.71814498529412,
          35.01641530588235
        ]
      },
      "properties": {
        "leisure": "park",
        "name": "太秦安井公園",
        "source": "Bing; survey"
      }
    },
    {
      "type": "Feature",
      "geometry": {
        "type": "Point",
        "coordinates": [
          135.75772803333334,
          34.92958530000001
        ]
      },
      "properties": {
        "leisure": "park",
        "name": "北浜児童公園",
        "source": "Bing"
      }
    },
    {
      "type": "Feature",
      "geometry": {
        "type": "Point",
        "coordinates": [
          135.7382136090909,
          34.92781386363636
        ]
      },
      "properties": {
        "leisure": "park",
        "source": "Bing"
      }
    },
    {
      "type": "Feature",
      "geometry": {
        "type": "Point",
        "coordinates": [
          135.73527458571428,
          35.036509
        ]
      },
      "properties": {
        "leisure": "park",
        "name": "衣笠児童公園",
        "source": "Bing"
      }
    },
    {
      "type": "Feature",
      "geometry": {
        "type": "Point",
        "coordinates": [
          135.7762391,
          34.9204139875
        ]
      },
      "properties": {
        "leisure": "park",
        "source": "Bing"
      }
    },
    {
      "type": "Feature",
      "geometry": {
        "type": "Point",
        "coordinates": [
          135.7779193925926,
          34.919310111111116
        ]
      },
      "properties": {
        "leisure": "park",
        "source": "Bing"
      }
    },
    {
      "type": "Feature",
      "geometry": {
        "type": "Point",
        "coordinates": [
          135.76273242,
          34.92028604
        ]
      },
      "properties": {
        "leisure": "park",
        "source": "Bing"
      }
    },
    {
      "type": "Feature",
      "geometry": {
        "type": "Point",
        "coordinates": [
          135.76665684999998,
          34.92005705
        ]
      },
      "properties": {
        "leisure": "park",
        "source": "Bing"
      }
    },
    {
      "type": "Feature",
      "geometry": {
        "type": "Point",
        "coordinates": [
          135.768808,
          34.9197353
        ]
      },
      "properties": {
        "alt_name": "向島中島公園",
        "leisure": "park",
        "name": "向島南さんさん公園"
      }
    },
    {
      "type": "Feature",
      "geometry": {
        "type": "Point",
        "coordinates": [
          135.76322405,
          34.91962553333334
        ]
      },
      "properties": {
        "leisure": "park",
        "source": "Bing"
      }
    },
    {
      "type": "Feature",
      "geometry": {
        "type": "Point",
        "coordinates": [
          135.7651473142857,
          34.922454542857146
        ]
      },
      "properties": {
        "leisure": "park",
        "source": "Bing"
      }
    },
    {
      "type": "Feature",
      "geometry": {
        "type": "Point",
        "coordinates": [
          135.76509422857143,
          34.92139769999999
        ]
      },
      "properties": {
        "leisure": "park",
        "source": "Bing"
      }
    },
    {
      "type": "Feature",
      "geometry": {
        "type": "Point",
        "coordinates": [
          135.77158846666666,
          34.919354500000004
        ]
      },
      "properties": {
        "leisure": "park",
        "name": "二の丸児童公園",
        "source": "Bing"
      }
    },
    {
      "type": "Feature",
      "geometry": {
        "type": "Point",
        "coordinates": [
          135.777153875,
          34.922351087500004
        ]
      },
      "properties": {
        "leisure": "park",
        "source": "Bing"
      }
    },
    {
      "type": "Feature",
      "geometry": {
        "type": "Point",
        "coordinates": [
          135.80407129999998,
          34.976380363636366
        ]
      },
      "properties": {
        "leisure": "park",
        "name": "竹田公園",
        "source": "Bing"
      }
    },
    {
      "type": "Feature",
      "geometry": {
        "type": "Point",
        "coordinates": [
          135.8188369222222,
          34.97398845555555
        ]
      },
      "properties": {
        "leisure": "park",
        "name": "椥辻中在家公園",
        "source": "Bing",
        "source_ref:url": "https://bridge1184.co.jp/local/【公園】椥辻中在家公園/"
      }
    },
    {
      "type": "Feature",
      "geometry": {
        "type": "Point",
        "coordinates": [
          135.82729963333333,
          34.989203866666664
        ]
      },
      "properties": {
        "leisure": "park",
        "source": "Bing"
      }
    },
    {
      "type": "Feature",
      "geometry": {
        "type": "Point",
        "coordinates": [
          135.81005985714287,
          34.94454541428571
        ]
      },
      "properties": {
        "leisure": "park",
        "source": "Bing"
      }
    },
    {
      "type": "Feature",
      "geometry": {
        "type": "Point",
        "coordinates": [
          135.808801375,
          34.942735899999995
        ]
      },
      "properties": {
        "leisure": "park",
        "source": "Bing"
      }
    },
    {
      "type": "Feature",
      "geometry": {
        "type": "Point",
        "coordinates": [
          135.717620568421,
          34.90518624736842
        ]
      },
      "properties": {
        "leisure": "park",
        "name": "淀城跡公園",
        "name:en": "Yodo Castle Ruins Park",
        "source": "GSImaps/ort;Survey"
      }
    },
    {
      "type": "Feature",
      "geometry": {
        "type": "Point",
        "coordinates": [
          135.75561461761657,
          35.074012582383446
        ]
      },
      "properties": {
        "leisure": "park",
        "name": "多目的広場"
      }
    },
    {
      "type": "Feature",
      "geometry": {
        "type": "Point",
        "coordinates": [
          135.76136853999998,
          35.00644536
        ]
      },
      "properties": {
        "leisure": "park",
        "name": "御射山公園",
        "source": "survey,2013-11-23"
      }
    },
    {
      "type": "Feature",
      "geometry": {
        "type": "Point",
        "coordinates": [
          135.77118065,
          35.006417633333335
        ]
      },
      "properties": {
        "leisure": "park",
        "name": "先斗町公園",
        "name:en": "Ponto-chō kōen",
        "source": "Bing"
      }
    },
    {
      "type": "Feature",
      "geometry": {
        "type": "Point",
        "coordinates": [
          135.67988858,
          34.98226872666667
        ]
      },
      "properties": {
        "leisure": "park",
        "name": "御陵公園",
        "source": "Bing; survey"
      }
    },
    {
      "type": "Feature",
      "geometry": {
        "type": "Point",
        "coordinates": [
          135.66938512800002,
          34.98349090000001
        ]
      },
      "properties": {
        "leisure": "park",
        "name": "桂坂公園",
        "name:en": "Katsurasaka Park",
        "source": "Bing;survey"
      }
    },